ilocy,ilocx,mean RH (%),rlat,rlon,lat,lon,station_name,ratio,model_vals
552,1011,75.0,-4.5177895001951045,10.457750487409273,42.0333,-82.9,HARROW CDA AUTO,1.020258659529914,82.04344940185547
558,1009,71.0,-4.286848910227873,10.373390404111557,42.2756,-82.9556,WINDSOR A,0.9686862638548898,81.80279541015625
560,1026,76.0,-4.166609944802487,11.147744256566659,42.2501,-81.9001,ERIEAU (AUT),1.030773411076787,82.28929138183594
565,1026,79.0,-3.96806270606981,11.12134986160888,42.45,-81.8833,RIDGETOWN RCS,1.0694325964884095,82.4454345703125
576,1017,75.0,-3.4904329491985364,10.714451499966426,42.9961,-82.30235,SARNIA AIRPORT COMPOSITE,1.0188411914742754,82.1575927734375
579,1046,77.0,-3.3628448895127754,11.999925006386508,42.8667,-80.55,DELHI CS,1.0331015097567882,83.18416595458984
580,1035,75.0,-3.2901926502243564,11.534742416339043,43.0332,-81.15055,LONDON CS COMPOSITE,1.005292019822634,83.26490020751953
587,1054,75.0,-2.9689855230488806,12.37546741076384,43.1717,-79.9342,HAMILTON A,1.0092566572327513,82.93781280517578
590,1054,75.0,-2.847748537093577,12.367862378820393,43.2917,-79.9083,HAMILTON RBG CS,1.0103082460315633,82.85148620605469
590,1063,72.0,-2.87199134716758,12.753426345960174,43.1833,-79.4,VINELAND STATION RCS,0.9750654327916527,82.4122314453125
591,1056,69.0,-2.8224940050071763,12.44308227059991,43.3,-79.8,BURLINGTON PIERS (AUT),0.9307414295869576,82.73951721191406
591,1066,71.0,-2.817509219258394,12.915619247015943,43.2,-79.1667,ST CATHARINES A,0.9637586443162434,82.2210464477539
592,1046,76.0,-2.767016061611644,11.996249233882299,43.45,-80.3833,WATERLOO WELLINGTON A,1.0161124544525015,83.47660064697266
592,1065,76.0,-2.777024958427152,12.868782847614893,43.25,-79.2167,PORT WELLER (AUT),1.0308299901074944,82.28477478027344
595,1023,79.0,-2.652732378466715,10.985487811987579,43.7667,-81.7167,GODERICH,1.0629807135659122,82.94584655761719
596,1044,80.0,-2.5766172477994584,11.930342238677156,43.65,-80.4167,ELORA RCS,1.0642344321608423,83.89684295654297
599,1061,72.0,-2.4371144169958994,12.657472533066505,43.6286,-79.395,TORONTO ISLAND A,0.9727272534933348,82.6103286743164
600,1057,72.0,-2.4275243009702034,12.480315141272046,43.6772,-79.6306,TORONTO LESTER B. PEARSON INT'L A,0.970469823964178,82.802490234375
600,1060,71.0,-2.4007826199030635,12.645432657636889,43.6667,-79.4,TORONTO CITY,0.9584777513966455,82.67405700683594
603,1037,80.0,-2.300804570575231,11.625346633334846,43.9833,-80.75,MOUNT FOREST (AUT),1.0677870134142482,83.61771392822266
605,1060,72.0,-2.2053809803339703,12.62287891217746,43.8622,-79.37,TORONTO BUTTONVILLE A,0.96995924327444,82.84607696533203
611,1051,78.0,-1.9090728517835933,12.250936972318437,44.2333,-79.7833,EGBERT CS,1.0474373962880885,83.1111831665039
611,1078,75.0,-1.9198534980984727,13.446682564305245,43.95,-78.1667,COBOURG (AUT),1.01705228123383,82.3021011352539
613,1095,79.0,-1.8540076319615553,14.186073428531435,43.8333,-77.15,POINT PETRE (AUT),1.1014530818880406,80.04865264892578
616,1043,75.0,-1.7154697341383163,11.8907013659687,44.5,-80.2167,COLLINGWOOD,1.0213829445171305,81.95314025878906
617,1074,74.0,-1.6786484471005159,13.239909508912735,44.2333,-78.3667,PETERBOROUGH A,1.0008301878949941,82.52095794677734
617,1087,74.0,-1.647919910661428,13.848380542642577,44.1167,-77.5333,TRENTON A,1.0252793990219404,80.55313110351562
618,1028,76.0,-1.6065279350677362,11.219407227076683,44.7458,-81.1072,WIARTON A,1.0457698783920173,81.1092529296875
618,1054,76.0,-1.628527286900477,12.358775206404447,44.4833,-79.55,BARRIE-ORO,1.0303185197582496,82.32562255859375
620,1059,80.0,-1.5131887286064079,12.576260729874983,44.5472,-79.2167,LAGOON CITY,1.0915476233195236,81.79753875732422
623,1102,74.0,-1.3803565049833204,14.473210899310928,44.2186,-76.5967,KINGSTON A,1.0312592465395132,80.0860366821289
627,1018,78.0,-1.2026810418927736,10.75774702274823,45.2333,-81.6333,TOBERMORY RCS,1.0689503484577143,81.43854522705078
629,1016,76.0,-1.1183024600454283,10.66923702540505,45.3333,-81.7333,COVE ISLAND (AUT),1.0442340482600998,81.22854614257812
629,1055,72.0,-1.1177117079756498,12.424309244301325,44.9667,-79.3,MUSKOKA A,1.0046155531528893,79.98812866210938
631,1112,80.0,-1.049403624583132,14.937137653778311,44.4167,-75.85,GRENADIER ISLAND,1.1402551990951888,78.3034439086914
633,1053,78.0,-0.9647414367555113,12.31469598686252,45.1403,-79.4028,BEATRICE CLIMATE,1.092684052245607,79.6696548461914
635,1042,77.0,-0.864689730664254,11.829329505586019,45.3442,-80.0442,PARRY SOUND CCG,1.0738556909986876,80.0272216796875
637,1077,77.0,-0.7819622248401432,13.376963697208172,45.0714,-77.8789,BANCROFT AUTO,1.1259201125789593,76.32662963867188
639,1000,77.0,-0.6883970505338951,9.992710779507949,45.8833,-82.5667,GORE BAY A,1.059850521089077,81.08472442626953
644,1112,76.0,-0.4461626144289343,14.929598665935082,45.0,-75.6333,KEMPTVILLE CS,1.0857134729299671,78.12522888183594
645,1068,77.0,-0.39870248083069254,13.001626368921663,45.5333,-78.2667,ALGONQUIN PARK EAST GATE,1.1198043455901021,76.74348449707031
647,968,77.0,-0.3282026503152139,8.56463998274487,46.4833,-84.5094,SAULT STE MARIE A,1.064346077982256,80.74224090576172
649,998,72.0,-0.227597160255603,9.91027875327784,46.3514,-82.5614,ELLIOT LAKE A,1.001662311903173,80.22396087646484
651,1109,70.0,-0.14229068458931268,14.818651720335906,45.3225,-75.6692,OTTAWA MACDONALD-CARTIER INT'L A,0.9884470993376621,79.03829193115234
652,1108,74.0,-0.0926557441963778,14.770203286375427,45.3833,-75.7167,OTTAWA CDA RCS,1.047450720017428,78.84806823730469
656,1110,70.0,0.06410095049558565,14.835748466185432,45.5167,-75.5667,GATINEAU A,0.9945042430603931,78.55690002441406
657,1141,75.0,0.1010906457365428,16.207356591627608,45.1672,-73.6789,STE-CLOTILDE,1.0714632405276898,78.12264251708984
658,1081,73.0,0.16636607784747412,13.543748046258958,45.95,-77.3167,PETAWAWA A,1.0649051376362235,76.50765228271484
658,1154,74.0,0.14685930964715913,16.805827936033086,45.0333,-72.85,FRELIGHSBURG,1.065345094908476,77.52367401123047
660,1046,74.0,0.2247059616752298,12.02855117692835,46.3636,-79.4228,NORTH BAY A,1.071040236410553,77.1114501953125
661,1024,72.0,0.27785930544065024,11.04782465123829,46.6256,-80.7978,SUDBURY A,0.9718390555596984,82.68582916259766
661,1135,73.0,0.29875596700283863,15.963370852402406,45.4272,-73.9292,STE-ANNE-DE-BELLEVUE 1,1.0233565795236277,79.61388397216797
661,1145,75.0,0.2903801318541239,16.391939646159297,45.2939,-73.3494,L'ACADIE,1.0502753473526583,79.69866180419922
663,1107,77.0,0.3596178026937318,14.694185981330756,45.8394,-75.6481,HIGH FALLS,1.1260333430253444,76.31895446777344
663,1138,70.0,0.3730154780297401,16.072237754624673,45.4667,-73.75,MONTREAL/PIERRE ELLIOTT TRUDEAU INTL A,0.973573927341887,80.2457504272461
666,1132,72.0,0.5070676872066261,15.82450983689447,45.6667,-74.0333,MONTREAL/MIRABEL INT'L A,1.0089111368066195,79.64756774902344
666,1142,72.0,0.4892824791896059,16.280985270212184,45.5167,-73.4167,MONTREAL/ST-HUBERT A,0.996774426250874,80.61735534667969
668,1049,76.0,0.6116695306403618,12.166449577432108,46.7097,-79.1011,BARRAGE TEMISCAMINGUE,1.1016891015539902,76.9923324584961
669,1266,82.0,0.6616967255468574,21.753266688790557,43.8308,-66.0886,YARMOUTH A,1.1226771183469306,81.5177001953125
670,1167,76.0,0.6886805319462729,17.390734475406397,45.3689,-71.8236,LENNOXVILLE,1.0987543831089324,77.1979751586914
671,1098,75.0,0.7391769186864998,14.331629182838835,46.3018,-76.0061,MANIWAKI UA,1.102735457213018,75.90718078613281
671,1099,75.0,0.7156331962537236,14.348255532286624,46.2747,-75.9919,MANIWAKI AIRPORT,1.0997803237419077,76.11114501953125
672,1140,73.0,0.7652575197208127,16.182646599358296,45.8094,-73.4347,L'ASSOMPTION,1.0222891428855876,79.69701385498047
672,1169,74.0,0.7807929838028224,17.463999638422727,45.4333,-71.6833,SHERBROOKE A,1.0631587583947633,77.68309783935547
673,1126,76.0,0.8244980392844867,15.547958374592634,46.05,-74.2833,STE AGATHE DES MONTS,1.0930711868003145,77.59934997558594
677,1258,84.0,1.0130631992300436,21.40976422531739,44.2858,-66.3467,BRIER ISLAND,1.1525911625083107,81.3386459350586
679,959,76.0,1.1072814606393633,8.146944438375767,47.9667,-84.7833,WAWA (AUT) COMPOSITE,1.0730409384886437,79.04788208007812
680,890,73.0,1.1206948848156557,5.08967868562008,48.3694,-89.3272,THUNDER BAY A COMPOSITE,1.078704973277794,75.52889251708984
680,981,73.0,1.1215982693691606,9.121374066660865,47.82,-83.3467,CHAPLEAU A,0.9855143216032126,82.67093658447266
682,828,73.0,1.2049970734234212,2.3522807896207825,48.6511,-93.4389,FORT FRANCES RCS,1.0174690922483463,80.0745620727539
682,1286,82.0,1.2052549376769126,22.638199832678378,43.99,-64.6642,WESTERN HEAD,1.102604892335429,83.00167846679688
684,1149,75.0,1.324199050408167,16.57320591671965,46.2258,-72.6572,NICOLET,1.0506641818791433,79.6691665649414
684,1248,79.0,1.2872699655585567,20.949284627149368,44.7121,-66.8019,GRAND MANAN SAR CS,1.1511976214434394,76.58966064453125
686,854,74.0,1.3834345065619407,3.5392528701002495,48.7611,-91.6281,ATIKOKAN (AUT),1.020155846083269,80.95769500732422
687,1033,74.0,1.4619087606708314,11.451268098154415,47.6975,-79.84945,EARLTON AWOS COMPOSITE,1.0354416387214012,79.7625503540039
687,1171,78.0,1.457289482635501,17.54437759271552,46.0492,-71.2661,THETFORD MINES RCS,1.1277005123333783,77.19581604003906
687,1274,81.0,1.434103189847353,22.120804518571795,44.4031,-65.2031,KEJIMKUJIK 1,1.09980024935485,82.19854736328125
688,1150,74.0,1.4756375012611829,16.62712774062688,46.3536,-72.5161,TROIS-RIVIERES,1.046010867476799,78.95660400390625
689,766,76.0,1.5321233667437582,-0.36729378923272993,49.0308,-97.56,GRETNA (AUT),1.0710819506025822,79.19245910644531
689,795,76.0,1.5318919790453405,0.9194384967178424,49.0236,-95.5983,SPRAGUE,1.0640890439136133,79.712890625
689,1157,77.0,1.5250089118547172,16.941728866058813,46.3036,-72.0608,LEMIEUX,1.09782764977307,78.2797622680664
691,1146,73.0,1.629841227873155,16.420695952523612,46.5633,-72.7333,SHAWINIGAN,1.0466906732409158,77.83903503417969
691,1237,75.0,1.6361428911410414,20.468694806801608,45.21345,-67.25145,ST. STEPHEN COMPOSITE,1.1189553686543485,74.8068618774414
693,746,78.0,1.7062631912498636,-1.2453482523306831,49.191,-98.9049,PILOT MOUND (AUT),1.0977011724011294,79.3055191040039
693,758,73.0,1.692542360181509,-0.7087051597006615,49.1876,-98.0839,MORDEN CDA CS,1.0292007971333332,79.16180419921875
693,871,76.0,1.713228400126756,4.279978525302254,49.0333,-90.4667,UPSALA (AUT),1.0394423841250706,81.60299682617188
693,1177,76.0,1.7124441297757003,17.80970706466286,46.205,-70.785,BEAUCEVILLE,1.0935316674966922,77.5666732788086
693,1250,80.0,1.7154081076878958,21.04652747769824,45.0731,-66.4492,POINT LEPREAU CS,1.155897801489217,77.2437744140625
694,921,71.0,1.7310415759976887,6.503382184276376,48.8167,-87.1,TERRACE BAY A,0.9904352662569604,80.00648498535156
696,649,72.0,1.8530276791510933,-5.551048048175222,49.05,-105.48299999999999,CORONACH SPC,1.0237515422548977,78.49298858642578
696,716,77.0,1.847991952515984,-2.6003980818173,49.2813,-100.986,MELITA,1.079135977212488,79.6356430053711
697,686,72.0,1.8662740844535828,-3.895667948011195,49.2167,-102.96700000000001,ESTEVAN A,1.0136191273366306,79.27762603759766
698,755,75.0,1.9070904135438949,-0.8589369087912421,49.3998,-98.3192,DEERWOOD RCS,1.0583325954791762,79.09190368652344
698,1156,76.0,1.912047650760465,16.87935615011807,46.6908,-71.9717,DESCHAMBAULT,1.0893664568955297,77.86325073242188
699,902,77.0,1.9686975720163602,5.651807495974578,49.1539,-88.3447,CAMERON FALLS (AUT),1.0629587035736892,80.84762573242188
700,618,69.0,2.0296618475819366,-6.918639867745951,49.0583,-107.586,VAL MARIE SOUTHEAST,0.9832061873273202,78.324462890625
700,642,69.0,2.0064448994585153,-5.860683129353336,49.1678,-105.979,ROCKGLEN (AUT),0.9776021468674213,78.77345275878906
700,759,78.0,2.002533166016492,-0.6691504847160616,49.4981,-98.0297,CARMAN U OF M CS,1.0997388360893725,79.15857696533203
701,1273,76.0,2.0477520185861904,22.08183244528817,44.9833,-64.9167,GREENWOOD A,1.018943233886154,83.24468994140625
702,1007,72.0,2.1028662985791216,10.272256140147682,48.5697,-81.3767,TIMMINS VICTOR POWER A,0.9817589197185883,81.85035705566406
702,1043,73.0,2.11790965152228,11.861579221272638,48.2458,-79.0342,ROUYN,1.003615880274922,81.17985534667969
702,1046,72.0,2.120200427078108,11.998605728555281,48.2167,-78.8333,ROUYN A,0.9902521701279569,81.1483383178711
702,1256,76.0,2.0923818993230565,21.32172942210499,45.3181,-65.8856,SAINT JOHN A,1.0495821241525922,80.81465148925781
702,1297,78.0,2.0884435395051537,23.135648831882524,44.6,-63.5333,MCNABS ISLAND (AUT),1.0354812466289207,84.0708236694336
703,1062,73.0,2.1295758090215102,12.715646487269279,48.0564,-77.7867,VAL-D'OR A,0.9746714414303035,83.59062194824219
703,1164,73.0,2.1447730555135602,17.22765924548009,46.8018,-71.3825,QUEBEC/JEAN LESAGE INTL A COMPOSITE,1.0037419092244493,81.16966247558594
703,1165,74.0,2.14518437871605,17.296210159902433,46.7803,-71.2875,STE-FOY (U. LAVAL),1.0204063490184165,80.93782043457031
703,1297,80.0,2.1285083347995943,23.143751611246888,44.6333,-63.5,SHEARWATER A,1.0639962152509082,83.9156265258789
704,1161,74.0,2.2118538692095133,17.117909468307342,46.9003,-71.5033,VALCARTIER A,1.014112620839604,81.44013214111328
705,1279,76.0,2.245163530071908,22.330642996726787,45.0667,-64.4833,KENTVILLE CDA CS,1.0108035726634257,83.91503143310547
707,813,69.0,2.3191516259454263,1.7019727769211224,49.7903,-94.3653,KENORA A,0.9638509497238662,79.89730834960938
708,576,66.0,2.3773939182474364,-8.775282388866069,49.1167,-110.46700000000001,ONEFOUR CDA,0.9340425310345718,78.86244201660156
708,675,76.0,2.392352772509108,-4.39599211308612,49.7,-103.8,WEYBURN,1.067752653785694,79.43938446044922
708,1295,78.0,2.353824406162802,23.043207937173968,44.88,-63.5,HALIFAX STANFIELD INT'L A,1.029828342026621,84.53230285644531
709,740,78.0,2.4288455569653005,-1.5193890618839296,49.9058,-99.3574,CARBERRY CS,1.1038203916314613,78.86587524414062
709,756,74.0,2.4082966955206366,-0.8221754174048094,49.90155,-98.2754,PORTAGE SOUTHPORT A COMPOSITE,1.046520425542729,78.91815948486328
709,771,73.0,2.4169256900823712,-0.15035553299554535,49.9167,-97.2333,WINNIPEG RICHARDSON INT'L A,1.023310293422114,79.61748504638672
709,836,70.0,2.408289044403697,2.742262906325916,49.8333,-92.75,DRYDEN A,0.9641285943382307,81.03189849853516
709,1139,73.0,2.4266194219063992,16.12848954456477,47.4111,-72.7875,LA TUQUE,1.05178894116816,77.46173095703125
709,1242,72.0,2.4355673986902304,20.695842322706284,45.8721,-66.5279,FREDERICTON A,1.0338765296796453,77.72428894042969
709,1244,74.0,2.4251909320456875,20.7588346149772,45.8389,-66.4497,GAGETOWN AWOS A,1.0750278949328476,76.8254165649414
710,732,73.0,2.4461289022730366,-1.9022360052764455,49.91,-99.9519,BRANDON A,1.032617845040276,78.89984893798828
710,1241,74.0,2.4592027999967008,20.625475230667618,45.9203,-66.6089,FREDERICTON CDA CS,1.0613663744612991,77.81428527832031
712,559,63.0,2.53608277470264,-9.53527615286293,49.1367,-111.652,MASINASIN AGDM,0.89594239895484,78.47898864746094
712,599,68.0,2.537436513099903,-7.770754446701081,49.4378,-108.98899999999999,EASTEND CYPRESS (AUT),0.95989952220922,79.06350708007812
712,644,71.0,2.5616572968723665,-5.774769190126448,49.7292,-105.946,ASSINIBOIA AIRPORT,1.0020816134369215,79.0766372680664
712,1109,78.0,2.554484863956163,14.795047971056874,47.9222,-74.6242,PARENT,1.0791070420359588,80.67203521728516
712,1355,84.0,2.558199415687226,25.705259485464225,43.9322,-60.0094,SABLE ISLAND,1.0830338985843988,86.56257629394531
713,542,64.0,2.5989722452603856,-10.301243442057203,49.05,-112.81700000000001,DEL BONITA AGDM,0.8969647267431126,79.63381958007812
713,553,66.0,2.5820012344151984,-9.791876818087163,49.1333,-112.05,MILK RIVER,0.938180664562779,78.51459503173828
713,1268,79.0,2.605983214039064,21.81846865676879,45.6,-64.95,FUNDY PARK (ALMA) CS,1.097925680676075,80.30583190917969
713,1278,80.0,2.601610143838706,22.28150390075132,45.4133,-64.3461,PARRSBORO,1.0816363759158367,82.54706573486328
715,754,78.0,2.69047932872118,-0.8860081616431726,50.1826,-98.3822,DELTA MARSH CS,1.1061468390699731,78.70000457763672
715,788,74.0,2.6808083374383638,0.5996210592201111,50.1772,-96.0647,PINAWA,1.0328485111245274,79.96280670166016
715,921,73.0,2.703334463357099,6.489334819136607,49.7828,-86.9306,GERALDTON A,0.9982889360576169,81.613037109375
715,1163,80.0,2.6894220377912768,17.21183514335496,47.3228,-71.1483,FORET MONTMORENCY RCS,1.1034165872232422,80.91767883300781
716,848,72.0,2.724053173483273,3.2714077284853,50.1167,-91.9,SIOUX LOOKOUT A,0.9968026322761784,80.61507415771484
716,1309,82.0,2.745014568619623,23.65676532780182,44.9833,-62.4833,MALAY FALLS,1.0738211988775774,85.22653198242188
717,592,68.0,2.791091450100094,-8.07580326635713,49.6406,-109.514,CYPRESS HILLS PARK,0.9570922518820021,79.29541015625
717,987,74.0,2.791706214675361,9.415332080574757,49.41015,-82.45555,KAPUSKASING A COMPOSITE,1.0118719939934886,81.62046813964844
717,1171,78.0,2.765421761788179,17.55235818730697,47.2842,-70.6375,CHARLEVOIX (MRC),1.0773054275923841,80.80694580078125
718,528,61.0,2.812988203747359,-10.92062877066302,49.1311,-113.809,WATERTON PARK GATE,0.8309700997118344,81.92894744873047
718,536,63.0,2.8090390132346363,-10.571265786085739,49.2006,-113.286,CARDSTON,0.8780255159150129,80.0804214477539
718,1298,80.0,2.804635508720081,23.185237070177262,45.2331,-63.0553,UPPER STEWIACKE RCS,1.0589278171523206,84.31727600097656
719,563,65.0,2.856562528174021,-9.3643909618418,49.4833,-111.486,FOREMOST AGDM,0.9252136813158396,78.40869903564453
719,1291,78.0,2.853505215275901,22.845728161553936,45.4167,-63.4667,DEBERT,1.046794533670015,83.16222381591797
720,1161,80.0,2.8986000488602337,17.08311893214299,47.5622,-71.2289,L'ETAPE,1.0803891902747909,82.6423568725586
721,554,64.0,2.9502621245868705,-9.764270125749597,49.5,-112.117,WRENTHAM AGDM,0.9138900234496684,78.15899658203125
721,961,76.0,2.9296590159790448,8.264570518409494,49.7468,-84.1637,NAGAGAMI (AUT),1.0688221658633217,79.35989379882812
721,1276,79.0,2.9483979876506776,22.21049334934004,45.7596,-64.2414,NAPPAN AUTO,1.089983061074055,80.8910140991211
722,694,73.0,2.995535908365118,-3.5550168868492085,50.3681,-102.571,BROADVIEW,1.0091968865254182,80.73091888427734
722,723,79.0,3.008132497519388,-2.2962437089641146,50.4549,-100.603,SHOAL LAKE CS,1.0972180970345633,80.35762023925781
722,760,79.0,3.003904372048266,-0.6603151832297092,50.4995,-98.0367,OAKPOINT MARINE,1.1109728897811961,79.36272430419922
723,594,68.0,3.044682502865987,-8.003292419347964,49.9025,-109.46600000000001,MAPLE CREEK,0.9597019884862599,79.07978057861328
724,564,67.0,3.098854685759743,-9.295091002394907,49.7342,-111.45,BOW ISLAND,0.9549735921832795,78.3026351928711
724,891,74.0,3.0628319237385395,5.168523459661336,50.2936,-88.9053,ARMSTRONG (AUT),1.0147229078087463,81.39115142822266
725,541,66.0,3.1357359907382967,-10.345348538815898,49.5667,-113.05,BLOOD TRIBE AGDM,0.9323586015930502,79.00487518310547
725,651,71.0,3.1327570583551307,-5.455457263620255,50.3325,-105.5525,MOOSE JAW A COMPOSITE,0.9974370841478191,79.44485473632812
725,774,76.0,3.132752498545924,-0.015706259812682064,50.63275,-97.024725,GIMLI COMPOSITE,1.059082689192792,80.0896987915039
725,1267,77.0,3.143485364303546,21.790230230835956,46.1053,-64.6838,MONCTON A,1.0673071538751373,80.51823425292969
726,489,71.0,3.170292165436488,-12.649333957750157,49.0817,-116.501,CRESTON CAMPBELL SCIENTIFIC,0.9404194482568171,84.2615966796875
726,545,61.0,3.16518878430455,-10.173529005346774,49.6303,-112.8,LETHBRIDGE A,0.8671028329638986,78.5149154663086
726,664,71.0,3.1741915710209807,-4.882522538616095,50.4333,-104.667,REGINA RCS COMPOSITE,0.9880150246390373,80.20246887207031
726,732,76.0,3.190349735680813,-1.8675357401014678,50.655,-99.9419,WASAGAMING,1.0840039486642201,78.2484359741211
726,829,76.0,3.188937835040126,2.3995117841802442,50.6306,-93.2214,EAR FALLS (AUT),1.060394555998891,79.99061584472656
727,527,62.0,3.2197105976804745,-10.956741179292218,49.5206,-113.99700000000001,PINCHER CREEK (AUT),0.8457280638217451,81.8189468383789
727,545,63.0,3.2174458259035728,-10.135335810670703,49.68915,-112.7585,LETHBRIDGE CDA COMPOSITE,0.8955943965925764,78.50948333740234
727,556,66.0,3.2342346610466,-9.653124284583603,49.8,-112.03299999999999,FINCASTLE AGDM,0.943190881945766,78.09752655029297
727,566,67.0,3.221146255468036,-9.228122352966734,49.8667,-111.383,BOW ISLAND IRRIGATION AGDM,0.9538730855319688,78.39297485351562
727,573,68.0,3.2161300997674656,-8.923334960260773,49.9167,-110.917,SEVEN PERSONS AGDM,0.9637312865843977,78.74915313720703
727,679,77.0,3.2308577774768055,-4.226503991244114,50.55,-103.65,INDIAN HEAD CDA,1.0629809726020536,80.84593200683594
728,553,66.0,3.267530353212105,-9.822486970496383,49.8,-112.3,BARNWELL AGDM,0.9416659319946479,78.2239990234375
728,620,71.0,3.239737027524128,-6.847848201400332,50.2667,-107.73299999999999,SWIFT CURRENT CDA,1.0008705915910965,79.17231750488281
728,621,68.0,3.2683382675249013,-6.811573228356857,50.3,-107.68299999999999,SWIFT CURRENT A,0.9585174753567433,79.17750549316406
728,738,72.0,3.238015104367025,-1.604296915523847,50.7119,-99.53,MCCREARY,1.0273540902838127,78.21774291992188
729,530,61.0,3.2884978068758692,-10.821872555980061,49.6167,-113.81700000000001,BROCKET AGDM,0.8406250132153792,80.98796081542969
729,576,63.0,3.2973173390410704,-8.779173353024989,50.022,-110.719,MEDICINE HAT A COMPOSITE,0.8913699502903975,78.88156127929688
729,1213,76.0,3.3020657185607187,19.387549788287743,47.1578,-67.8319,ST LEONARD A COMPOSITE,1.0865401535487054,78.06578826904297
731,471,69.0,3.4054207760822335,-13.42696425884179,49.1119,-117.73899999999999,WARFIELD RCS,0.9309489970494809,82.7210693359375
731,1299,79.0,3.3983083590013163,23.20151034990656,45.7667,-62.6833,CARIBOU POINT (AUT),1.0824193797241866,81.45626068115234
732,547,67.0,3.420719141938451,-10.076854080447603,49.9,-112.73299999999999,IRON SPRINGS AGDM,0.9541925388381872,78.36672973632812
732,1203,75.0,3.424540786966939,18.982279408560863,47.4167,-68.3245,EDMUNDSTON,1.0859162247723413,77.08287048339844
732,1263,77.0,3.419170347604767,21.608220895106566,46.4303,-64.7681,BUCTOUCHE CDA CS,1.083194583072629,79.3372573852539
733,556,70.0,3.4919469342595337,-9.668283227416524,50.05,-112.133,VAUXHALL CDA CS,0.9986589652548457,78.2300796508789
734,586,68.0,3.5091253913682428,-8.33325931119791,50.3069,-110.09100000000001,SCHULER AGDM,0.9647509206226823,78.66592407226562
734,1183,75.0,3.5026325469840005,18.071611554798213,47.8058,-69.5486,RIVIERE-DU-LOUP,1.062077264348775,78.81304168701172
734,1327,82.0,3.527571178938827,24.45827343914825,45.35,-60.9833,HART ISLAND (AUT),1.0578213229184312,86.51560974121094
735,474,66.0,3.5652891404836695,-13.311122271809033,49.2964,-117.632,CASTLEGAR A,0.8889084463165494,82.86666107177734
735,502,65.0,3.5715594149337595,-12.06538588634602,49.6122,-115.78200000000001,CRANBROOK A,0.8469363191662567,85.65555572509766
735,515,66.0,3.5657829046224143,-11.467856191599479,49.74515,-114.8835,SPARWOOD COMPOSITE,0.8773706755447541,83.95639038085938
735,767,72.0,3.584645139984343,-0.3490100752920779,51.0834,-97.5545,FISHER BRANCH (AUT),1.0044448276802709,80.00172424316406
735,1139,70.0,3.5858890255644726,16.122340479606144,48.5167,-72.2667,ROBERVAL A,0.9812833389221712,79.61530303955078
735,1315,81.0,3.5504531204191316,23.905245644814915,45.6084,-61.6797,TRACADIE,1.0829597805240558,83.47676849365234
736,446,64.0,3.6280316709637113,-14.524794319905412,49.0283,-119.441,OSOYOOS CS,0.8523881003218609,83.7983627319336
736,540,67.0,3.6081148703473227,-10.361061959962385,50.0258,-113.22399999999999,BARONS AGCM,0.9486584353644554,78.82389068603516
736,820,72.0,3.6085516827729736,2.018623133323337,51.0669,-93.7931,RED LAKE A,1.0109684074678948,79.48548889160156
736,1157,74.0,3.6254941753179493,16.906447140250897,48.3072,-71.1292,LATERRIERE,1.0362874491310246,79.69744873046875
736,1281,80.0,3.631858308369431,22.414812996378107,46.3028,-63.5756,MAPLE PLAINS,1.1166497716475907,79.958740234375
737,534,63.0,3.6421323328406863,-10.62702051987502,50.0036,-113.639,CLARESHOLM,0.8838312178291332,79.55438995361328
737,552,68.0,3.6601523349675427,-9.83133103464756,50.1833,-112.43299999999999,ENCHANT AGDM,0.9698960948164257,78.24861145019531
737,563,67.0,3.6503923431492087,-9.35506824693227,50.265,-111.70100000000001,ROLLING HILLS AGCM,0.9533120530826289,78.4391098022461
737,731,71.0,3.637650982133446,-1.9186062210436028,51.1,-100.05,DAUPHIN A,1.0045882541220317,78.87932586669922
737,1158,74.0,3.677953743438618,16.97946760951628,48.3333,-71.0,BAGOTVILLE A,1.0371451753387813,79.63153839111328
737,1160,76.0,3.662019493356082,17.041652278761006,48.2981,-70.9195,LA BAIE,1.0677785989208106,79.43745422363281
737,1256,78.0,3.6767683756974234,21.31198319515317,46.7833,-65.0167,KOUCHIBOUGUAC CS,1.1263891278171756,77.28569030761719
738,1276,78.0,3.684710788877479,22.195185432129644,46.44,-63.8349,SUMMERSIDE COMPOSITE,1.086377990685463,80.13211059570312
739,713,78.0,3.760196423505861,-2.739158794258717,51.1833,-101.363,ROBLIN,1.0765196511281316,80.86592864990234
739,1155,74.0,3.7341605230781916,16.86002063192468,48.425,-71.1425,JONQUIERE,1.0282571615482943,80.31985473632812
739,1248,74.0,3.765619739795685,20.940153426022277,47.00945,-65.4664,MIRAMICHI RCS COMPOSITE,1.0823617607837712,76.30486297607422
739,1287,78.0,3.745334014783396,22.703007279034583,46.2886,-63.1286,CHARLOTTETOWN A,1.083170579049195,80.36939239501953
740,1052,72.0,3.7814550733955166,12.289198024598608,49.76225,-77.8049,MATAGAMI COMPOSITE,0.9460485794243652,84.93994903564453
740,1171,74.0,3.802860285901953,17.561084638260063,48.2603,-70.1144,POINTE CLAVEAU,1.0946072404872653,75.45123291015625
741,387,82.0,3.8239210122061644,-17.15789936957119,48.4133,-123.325,VICTORIA GONZALES CS,1.0313748530401172,88.73403930664062
741,1133,77.0,3.8382573925206396,15.845783579360823,48.8417,-72.5469,NORMANDIN,1.050612921573547,81.79766845703125
742,380,83.0,3.8731095045639248,-17.440320329245736,48.3667,-123.75,VICTORIA MARINE,1.0319300672375913,89.76783752441406
742,385,84.0,3.866425232576927,-17.22336588045333,48.431999999999995,-123.439,ESQUIMALT HARBOUR,1.0545664697654005,88.89928436279297
742,387,80.0,3.860863145810521,-17.13098660583699,48.457,-123.305,VICTORIA UNIVERSITY CS,1.0115775198811483,88.26403045654297
742,540,68.0,3.8753849419885085,-10.387030233865174,50.2819,-113.35,CHAMPION AGDM,0.9654964697883667,78.60517883300781
742,630,73.0,3.8673502491107055,-6.388839086316044,50.95,-107.15,LUCKY LAKE,1.0259068083231826,79.41597747802734
742,697,70.0,3.887198018830976,-3.42540834014595,51.2667,-102.46700000000001,YORKTON A,0.9640574315380037,81.03787994384766
744,386,77.0,3.9669161304813976,-17.202327127922683,48.5338,-123.459,VICTORIA HARTLAND CS,0.9752796556840767,88.1159439086914
744,562,70.0,3.9532646939536473,-9.393077020352104,50.5553,-111.84899999999999,BROOKS,0.9934991277444091,78.6363754272461
745,639,72.0,4.004028274264496,-6.011103315258324,51.1333,-106.583,ELBOW CS,1.0060835774843842,79.87141418457031
746,387,78.0,4.066814708077395,-17.144251143372646,48.6472,-123.426,VICTORIA INT'L A,0.9896088350926999,87.96784973144531
746,447,62.0,4.074800059239958,-14.502483686793461,49.4631,-119.602,PENTICTON A,0.8155901221478181,84.84234619140625
746,597,69.0,4.042323964101323,-7.864251449612356,50.9095,-109.501,LEADER AIRPORT,0.9726887703735626,79.1713638305664
746,1294,79.0,4.050689586418005,22.98365073703906,46.4503,-62.5758,ST. PETERS,1.090556391362094,80.8484878540039
747,394,80.0,4.113870510243994,-16.861279139610314,48.7839,-123.045,SATURNA ISLAND CS,1.0158384603253834,87.89380645751953
748,870,72.0,4.132586328310283,4.232948026607014,51.4478,-90.21600000000001,PICKLE LAKE (AUT) COMPOSITE,1.0074505622712435,79.7630386352539
749,405,76.0,4.198174141908334,-16.35606704872496,49.0253,-122.36,ABBOTSFORD A,0.9751574194583347,86.98248291015625
749,422,79.0,4.1991101393692425,-15.578263258483593,49.2667,-121.23299999999999,HOPE SLIDE,1.013307313440784,87.0119400024414
749,447,62.0,4.1788700064708015,-14.503447269573998,49.5626,-119.649,SUMMERLAND CS,0.8157247992448198,84.82833862304688
749,658,77.0,4.190016549970016,-5.148031551390762,51.4167,-105.25,LAST MOUNTAIN CS,1.0609845873629402,80.99805450439453
749,1154,75.0,4.20185281218835,16.777550400371577,48.8942,-71.0317,ONATCHIWAY,1.0260027335436708,81.5841293334961
750,434,67.0,4.249087464114037,-15.0688028537222,49.4664,-120.5115,PRINCETON A COMPOSITE,0.8736487003526613,85.591552734375
750,561,72.0,4.2504422562418815,-9.465240944258065,50.8333,-112.05,ROSEMARY AGDM,1.0214949315420485,78.66638946533203
751,399,82.0,4.28007966625976,-16.62260391293486,49.0181,-122.78399999999999,WHITE ROCK CAMPBELL SCIENTIFIC,1.045336766440274,87.54887390136719
751,415,77.0,4.282087444883862,-15.91382619343588,49.2431,-121.76,AGASSIZ RCS,0.9939094561006381,86.46430206298828
751,1238,75.0,4.264025097535811,20.52416016276687,47.6292,-65.7483,BATHURST A,1.0919898567734092,76.65413665771484
752,1092,77.0,4.314826475256753,14.041572275934413,49.8225,-74.9753,CHAPAIS,1.0071719326143969,85.32573699951172
752,1098,74.0,4.341123900397775,14.331937270448247,49.7667,-74.5333,CHIBOUGAMAU CHAPAIS A,0.972197332234316,84.95133972167969
753,419,76.0,4.348558395632354,-15.712158813189633,49.3683,-121.49799999999999,HOPE A,0.9807268729811554,86.48851776123047
753,555,70.0,4.359475769684267,-9.711349543044342,50.8925,-112.465,BASSANO AGCM,0.9945375662085305,78.55426788330078
754,633,74.0,4.388030623549306,-6.257256460178759,51.4833,-107.05,OUTLOOK PFRA,1.0325354271065896,79.98705291748047
754,1193,78.0,4.416708703505286,18.502904398959508,48.5139,-68.4683,POINTE-AU-PERE (INRS),1.1508766951288287,75.6412582397461
755,402,81.0,4.440452463283688,-16.502915772943545,49.2083,-122.69,PITT MEADOWS CS,1.0318100804146617,87.61494445800781
755,657,77.0,4.448566909522275,-5.214211817459767,51.6667,-105.4,WATROUS EAST,1.0589312740203267,81.15511322021484
755,674,73.0,4.473443711760957,-4.46219952097385,51.7667,-104.2,WYNYARD (AUT),0.9962970282300283,81.77620697021484
755,1227,74.0,4.445044420877726,20.023108968557214,47.98665,-66.33375,CHARLO A COMPOSITE,1.103322101960621,74.85526275634766
755,1317,80.0,4.446991408341724,24.01922014584583,46.3684,-60.9759,NORTHEAST MARGAREE (AUT),1.0376806675827073,86.0437240600586
756,453,70.0,4.506705494696642,-14.223333606531087,49.9561,-119.37799999999999,KELOWNA A,0.9249585923080533,84.46342468261719
756,567,71.0,4.495893017200723,-9.19575838743062,51.1253,-111.705,POLLOCKVILLE AGDM,1.0008966333137101,79.17025756835938
757,384,75.0,4.547856150701866,-17.285246670498605,49.0544,-123.87,NANAIMO A,0.9488089355126433,88.2217025756836
757,395,79.0,4.531847882450481,-16.812356613135417,49.195,-123.182,VANCOUVER INT'L A,1.0082830621851113,87.44551849365234
757,477,78.0,4.535658879917492,-13.17156524054139,50.2694,-117.81700000000001,NAKUSP CS,1.0246833851255863,84.95674133300781
757,621,73.0,4.543253953489351,-6.782143420224657,51.5667,-107.917,ROSETOWN EAST,1.0213135904105588,79.77313995361328
757,1195,74.0,4.5562730774171545,18.628454874362962,48.6,-68.2167,MONT-JOLI A,1.0773524654438806,76.65965270996094
757,1332,79.0,4.547908489350023,24.68599969266512,46.1667,-60.0481,SYDNEY A,1.018706673748135,86.5507583618164
758,544,68.0,4.601576348302692,-10.188871211149367,51.0333,-113.28299999999999,STRATHMORE AGDM,0.9672480037688989,78.46283721923828
758,587,70.0,4.597677436781176,-8.312432835564865,51.3833,-110.35,OYEN AGDM,0.9831434786418858,79.46466827392578
758,1314,79.0,4.588363646646774,23.89393865227279,46.55,-61.05,GRAND ETANG,1.0096205717691726,87.32967376708984
759,396,78.0,4.6139940975641816,-16.742374252793972,49.2954,-123.12200000000001,VANCOUVER HARBOUR CS,0.9974472340646591,87.27655792236328
759,556,69.0,4.648897319967058,-9.67540328145398,51.1833,-112.5,HUSSAR AGDM,0.9761086288935359,78.89398193359375
759,603,71.0,4.610409614867476,-7.570753106418941,51.5167,-109.18299999999999,KINDERSLEY A,0.9927834041942183,79.81725311279297
759,1207,75.0,4.623485216674943,19.159314658896264,48.4719,-67.4347,AMQUI,1.0870360323921815,77.00346374511719
760,396,77.0,4.67786479441112,-16.76938595703542,49.347,-123.193,WEST VANCOUVER AUT,0.985557343760049,87.1970443725586
760,716,73.0,4.685995917015492,-2.6066397449072016,52.115,-101.23299999999999,SWAN RIVER RCS,1.0285370391297821,79.212890625
760,1250,77.0,4.662707364772209,21.02564696281144,47.8022,-64.8333,BAS CARAQUET,1.1249274518802828,76.39398193359375
761,1241,76.0,4.7250359023055095,20.634839340816264,48.0119,-65.3317,NEW CARLISLE 1,1.1288230320858132,75.14163970947266
761,1315,77.0,4.704626271084214,23.916315122938823,46.645,-60.9472,CHETICAMP CS,0.9729325610426077,88.3285140991211
762,531,62.0,4.76924219822372,-10.75830623635522,51.0761,-114.22200000000001,COP UPPER,0.8752459172855268,79.05958557128906
762,534,61.0,4.778503714622416,-10.625797002736029,51.1139,-114.02,CALGARY INT'L A,0.8677791894412442,78.45372009277344
763,529,65.0,4.816583810372801,-10.845805340030955,51.1031,-114.374,SPRINGBANK A,0.9101876630552992,79.703125
764,395,79.0,4.8334767565191905,-16.7885490023161,49.4878,-123.29899999999999,HOWE SOUND - PAM ROCKS,1.0135783752905174,86.9886703491211
764,590,70.0,4.864690176494659,-8.17501403860561,51.6697,-110.206,ESTHER 1,0.9796322401756518,79.7494888305664
764,774,75.0,4.859701908610029,-0.013483923037703209,52.3597,-97.022,BERENS RIVER CS,1.0611768722371195,78.87991333007812
764,1005,77.5,4.853192638299974,10.190266595970183,51.279125,-80.6314,MOOSONEE UA,1.0380551969679288,83.32478332519531
765,382,82.0,4.890221179886947,-17.364549459480404,49.3503,-124.16,BALLENAS ISLAND,1.0418949882864896,87.83808135986328
765,520,62.0,4.895315794269252,-11.275867224351858,51.0833,-115.06700000000001,BOW VALLEY,0.8418060831581625,82.20014190673828
765,1322,77.0,4.883307348938683,24.243318232091806,46.6628,-60.4064,INGONISH BEACH RCS,0.9660722385760862,88.95575714111328
766,372,77.0,4.945895438594795,-17.81291919406879,49.25,-124.833,PORT ALBERNI A,0.9635611108090193,89.18758392333984
766,379,79.0,4.929600235541749,-17.512957381789747,49.3372,-124.39399999999999,QUALICUM BEACH AIRPORT,1.0045763089778061,87.76818084716797
766,555,67.0,4.927662707280547,-9.731934430373395,51.4453,-112.677,DRUMHELLER EAST,0.9446102253382975,79.16169738769531
766,1252,78.0,4.942492261216898,21.153051514564137,48.0089,-64.4942,MISCOU ISLAND (AUT),1.1336230601164223,76.79251098632812
767,358,84.0,5.0044347021713405,-18.449748667971477,49.0822,-125.773,TOFINO A,1.038086822405738,90.31056213378906
768,640,71.0,5.039762809078846,-5.965341609252919,52.1667,-106.71700000000001,SASKATOON DIEFENBAKER INT'L A,0.9797730295230548,80.87714385986328
768,900,75.0,5.02058830583224,5.562715540897963,52.1961,-87.9361,LANSDOWNE HOUSE (AUT),1.0286485704298678,81.37428283691406
769,379,78.0,5.079148563625665,-17.48702781581934,49.4866,-124.435,SISTERS ISLAND,0.9864562296297545,88.24898529052734
769,399,78.0,5.08339526237996,-16.606789185471683,49.7832,-123.161,SQUAMISH AIRPORT,0.9936572777663882,87.60944366455078
769,513,64.0,5.069347677214045,-11.553046379784682,51.18835,-115.5595,BANFF CS COMPOSITE,0.8470593231626593,84.32553100585938
769,1145,77.0,5.0684658115503245,16.386396578181373,49.8403,-71.1683,CHUTE-DES-PASSES,1.0191540250662015,84.32257080078125
769,1191,75.0,5.058478584630331,18.448044213540186,49.1333,-68.2,BAIE-COMEAU A,1.082584702356468,77.32008361816406
770,556,71.0,5.138070948144064,-9.687548815657058,51.6603,-112.675,MORRIN AGDM,0.9992573972997091,79.30013275146484
771,424,64.0,5.184233667687611,-15.498892268984644,50.22885,-121.5825,LYTTON COMPOSITE,0.8220290013507541,86.89319610595703
771,570,73.0,5.171550438084447,-9.052190682327561,51.8158,-111.68299999999999,SPONDIN AGCM,1.0239280477227881,79.56945037841797
771,584,71.0,5.18190198753528,-8.438819655987178,51.9369,-110.713,CONSORT AGDM,0.9925672782171497,79.83463287353516
771,1296,80.0,5.160340225196276,23.067063733372112,47.42100000000001,-61.778999999999996,ILES DE LA MADELEINE COMPOSITE,1.004149002652563,88.9169921875
772,459,77.0,5.207853828775503,-13.959067681366966,50.703,-119.291,SALMON ARM CS,1.01319895351743,84.81817626953125
772,562,73.0,5.198788326002008,-9.40686000965901,51.775,-112.25200000000001,CRAIGMYLE AGCM,1.025385801927367,79.45632934570312
772,1191,72.0,5.1887276143913486,18.43614600800423,49.2592,-68.1458,BAIE-COMEAU,1.0574403477296266,75.99229431152344
773,476,78.0,5.258987524420587,-13.208070252451712,50.9572,-118.1745,REVELSTOKE A COMPOSITE,1.0124982542109562,85.97917175292969
774,549,73.0,5.3099265254253885,-9.989132869980383,51.7675,-113.206,THREE HILLS,1.0313430222303377,78.99737548828125
774,593,71.0,5.301782684398907,-8.034036962194845,52.1242,-110.101,BODO AGDM,0.9902201613252904,80.02386474609375
776,375,79.0,5.398827057118161,-17.69177543345937,49.7167,-124.9,COMOX A,0.9793422199143264,90.02964782714844
776,405,74.0,5.367198301998756,-16.368037148016132,50.1289,-122.955,WHISTLER,0.9367027521000331,88.17041015625
776,494,71.0,5.394415140675882,-12.39295400636217,51.2992,-116.98200000000001,GOLDEN A,0.9050501420434203,87.55453491210938
776,574,71.0,5.3949422586397935,-8.86254343967241,52.07045,-111.4495,CORONATION A COMPOSITE,0.9946148526736163,79.67028045654297
776,1213,80.0,5.405639870783257,19.402403838180682,49.1092,-66.6544,CAP-CHAT,1.1472034361735475,77.82918548583984
776,1251,80.0,5.366053007944036,21.097471836404118,48.4194,-64.3169,CAP-D'ESPOIR,1.1393509020400914,78.36559295654297
777,381,78.0,5.420220326338664,-17.40753530712463,49.8342,-124.5,POWELL RIVER A,0.9901880846991911,87.91638946533203
777,443,62.0,5.416834683190573,-14.660457567490104,50.7022,-120.44200000000001,KAMLOOPS A,0.8174958679987075,84.64456176757812
777,537,71.0,5.416627615103591,-10.525009840106886,51.7586,-114.085,OLDS AGDM,1.0066661659799296,78.71650695800781
777,611,75.0,5.410314696485807,-7.227641306952379,52.3597,-108.835,SCOTT CDA,1.0372420332832355,80.70010375976562
777,702,70.0,5.427034731484576,-3.224959760138713,52.8167,-102.31700000000001,HUDSON BAY A COMPOSITE,0.9731061541643935,80.2843246459961
777,1201,79.0,5.422717212948875,18.882282923933264,49.3167,-67.3811,POINTE-DES-MONTS,1.1680752520861024,75.4830093383789
778,555,68.0,5.484581550677684,-9.697295705595849,51.9978,-112.803,BIG VALLEY AGCM,0.9555066676831011,79.42699432373047
779,529,68.0,5.517534556250306,-10.88321669473655,51.7781,-114.68299999999999,SUNDRE A,0.9612328915825741,78.9538345336914
779,544,70.0,5.524228340797441,-10.187388476931694,51.9358,-113.59100000000001,WIMBORNE AGCM,0.9877784230825251,79.091796875
780,588,72.0,5.551407514468578,-8.246042385577823,52.3342,-110.51,CADOGAN AGCM,1.0021405512078274,80.18567657470703
780,670,78.0,5.541979838388668,-4.606198823522794,52.8167,-104.6,MELFORT,1.0648842738323163,81.74950408935547
782,1246,74.0,5.651301920249028,20.85593090429929,48.7769,-64.4781,GASPE A,1.042334043956779,79.23512268066406
783,371,77.0,5.703163327113734,-17.835905794927697,49.9519,-125.273,CAMPBELL RIVER A,0.9588818637435488,89.62281036376953
783,571,72.0,5.673227190517969,-9.015923551224448,52.3153,-111.779,ALLIANCE AGCM,1.009217008009823,79.62342834472656
783,744,75.0,5.7063233640495,-1.365436807885565,53.1864,-99.2678,GRAND RAPIDS (AUT),1.0369840990857149,80.72017669677734
785,541,69.0,5.801064729915265,-10.317618290854872,52.1786,-113.89299999999999,RED DEER A,0.9703586153054609,79.36148071289062
785,560,71.0,5.80114413522297,-9.50199083700556,52.3469,-112.596,STETTLER AGDM,0.9950566112040377,79.6349105834961
785,591,73.0,5.782834529229403,-8.101626068486432,52.5869,-110.34299999999999,RIBSTONE SOUTH AGCM,1.0126856378793774,80.45279693603516
785,620,70.0,5.765774172302074,-6.816518407766225,52.7719,-108.256,NORTH BATTLEFORD A COMPOSITE,0.9590054474142192,81.46478271484375
787,1230,75.0,5.868272928845077,20.155391389530983,49.2508,-65.3247,CAP-MADELEINE,1.0526122772129465,79.52172088623047
788,576,71.0,5.899614217282353,-8.776780488424757,52.5822,-111.465,BELLSHILL AGCM,0.9929311792244835,79.80537414550781
789,1140,78.0,5.94133415030525,16.191733535969586,50.7289,-71.0131,BONNARD 1,1.0217005255119744,85.20477294921875
789,1147,78.0,5.97269704592703,16.505185607563952,50.6564,-70.5319,MANOUANE EST,1.0292772794710967,84.57756042480469
790,547,68.0,6.011625811417479,-10.086977829025768,52.4333,-113.6,PRENTISS,0.9514335818038903,79.76702117919922
790,657,70.0,6.007061876745139,-5.205649220236125,53.2167,-105.667,PRINCE ALBERT A,0.9548668200671235,81.81787109375
790,680,73.0,6.022339598671445,-4.196613718484254,53.3333,-104.0,NIPAWIN A COMPOSITE,1.0068235886702521,80.92121887207031
791,432,67.0,6.040529782467067,-15.168750889719446,51.1447,-121.505,CLINTON (AUT),0.8976116415287648,83.30657196044922
791,545,74.0,6.047101757492389,-10.177073514979266,52.4489,-113.756,LACOMBE CDA 2,1.0352214175475214,79.7795181274414
792,582,69.0,6.101760253486226,-8.51030655742628,52.8294,-111.096,WAINWRIGHT CFB AIRFIELD 21,0.9591746493032494,80.28683471679688
792,1330,85.0,6.07942366355763,24.598257854640586,47.5739,-59.1547,PORT AUX BASQUES,1.056737922952071,89.77275848388672
794,529,71.0,6.182117809439772,-10.874585430531898,52.42735,-114.9145,ROCKY MTN HOUSE A COMPOSITE,1.005516951401351,78.80647277832031
794,596,73.0,6.1838732114001385,-7.88359819250942,53.0189,-110.102,RIVERCOURSE AGCM,1.0064089368467375,80.95455932617188
795,535,76.0,6.243901081434693,-10.58202050895611,52.5531,-114.47200000000001,LEEDALE AGDM,1.0711444861456132,79.18783569335938
795,564,72.0,6.20569266152084,-9.314940305333598,52.7803,-112.428,ROSALIND AGCM,1.0060464834515777,79.87435913085938
795,572,72.0,6.206484689719541,-8.970219103168295,52.8475,-111.87200000000001,KILLAM AGDM,1.0051963773770412,79.94190979003906
796,590,72.0,6.288482904584754,-8.183879472767462,53.0708,-110.62100000000001,GILT EDGE NORTH AGCM,0.9949562006708995,80.76467895507812
797,366,82.0,6.335759578282908,-18.08989630523469,50.4535,-125.993,FANNY ISLAND,1.036478489309385,88.29711151123047
797,632,77.0,6.295206216756323,-6.310304850448561,53.3667,-107.55,SPIRITWOOD WEST,1.068175970943845,80.45274353027344
798,806,72.0,6.37108696084185,1.3946292957132782,53.85,-94.65,ISLAND LAKE A,1.0029753701955562,80.11893463134766
799,514,68.0,6.406167945919117,-11.529902496188551,52.492,-116.04,NORDEGG CS,0.9696481095494284,78.26862335205078
799,582,74.0,6.39023592991597,-8.509207539713254,53.1133,-111.181,ALBERT HALL AGCM,1.025792574145174,80.51283264160156
800,598,71.0,6.467027949933973,-7.816700497910845,53.3092,-110.072,LLOYDMINSTER A,0.974367682900571,81.32581329345703
800,763,72.0,6.452753004204012,-0.5033945328851623,53.95,-97.85,NORWAY HOUSE A,0.9972620774459007,80.57793426513672
802,560,77.0,6.5168158846192465,-9.491987419918518,53.05,-112.81700000000001,CAMROSE,1.0730878060519848,80.08448791503906
802,575,73.0,6.519155409001907,-8.823180162448546,53.1822,-111.73200000000001,VIKING AGCM,1.0151505654803272,80.2574462890625
802,720,71.0,6.530706804739108,-2.4262533068727663,53.9667,-101.1,THE PAS A COMPOSITE,0.974529684927647,81.31229400634766
802,870,75.0,6.5178768261047715,4.222264895214605,53.82445,-89.88115,BIG TROUT LAKE COMPOSITE,1.022601582843131,81.85547637939453
802,1209,74.0,6.5281147544200975,19.221659956798636,50.2167,-66.25835,SEPT-ILES A COMPOSITE,1.0259156492820685,80.503173828125
803,468,75.0,6.576161870116752,-13.555416375438215,52.129,-119.29,BLUE RIVER A COMPOSITE,0.9607291977004941,87.12709045410156
803,568,72.0,6.581022963586246,-9.1269137688749,53.185,-112.24600000000001,HOLDEN AGDM,1.0041430863976448,80.02576446533203
803,587,73.0,6.584772918176092,-8.290268669050546,53.3438,-110.882,VERMILION AGDM,1.008127552661312,80.8165512084961
803,1351,83.0,6.597500707225498,25.503301629128412,47.6167,-57.6167,BURGEO,1.0316365176554365,89.79338073730469
805,354,84.0,6.6747472272446595,-18.602265614133806,50.5833,-126.93299999999999,ALERT BAY,1.0343220088703093,90.6392822265625
805,1133,79.0,6.681568308578967,15.871063520888601,51.5325,-71.1108,LAC BENOIT,1.0178621923300468,86.62256622314453
805,1239,80.0,6.672664893036011,20.54019153843304,49.8386,-64.2933,PORT-MENIER,1.1198613577631076,79.72943115234375
806,653,72.0,6.729632151874416,-5.362566278886254,53.9167,-106.06700000000001,WASKESIU LAKE,1.0188382939724037,78.87151336669922
806,1389,86.0,6.714805284597526,27.17979422671576,46.9167,-55.3833,ST LAWRENCE COMPOSITE,1.06636987742207,90.00849914550781
807,539,70.0,6.762574807232476,-10.4434834705437,53.0894,-114.441,BRETON PLOTS,0.9820489076684304,79.55323791503906
808,546,70.0,6.8155085797781725,-10.093559028413027,53.2172,-113.895,THORSBY AGCM,0.9746900329821513,80.15386199951172
808,599,73.0,6.817885406962582,-7.761994236902337,53.6642,-110.081,TULLIBY LAKE AGCM,1.00750979492503,80.86610412597656
809,349,84.0,6.867169200978581,-18.822471420345344,50.6803,-127.366,PORT HARDY A,1.0214906432946067,91.77783966064453
810,551,72.0,6.869367874748275,-9.896363041606373,53.3117,-113.5945,EDMONTON INTERNATIONAL CS COMPOSITE,1.0006688864859496,80.30360412597656
810,572,71.0,6.878051683715291,-8.976976249942552,53.5053,-112.098,VEGREVILLE,0.9854076865668236,80.41468048095703
811,578,73.0,6.948249156394621,-8.707260567495911,53.6253,-111.678,TWO HILLS AGDM,1.0084966662453985,80.78697204589844
812,569,72.0,6.961652056468458,-9.083551639856822,53.5667,-112.3,MUNDARE AGDM,1.0002387826899448,80.338134765625
814,1236,81.0,7.086274614072902,20.404725115702817,50.2714,-64.2264,LONGUE-POINTE-DE-MINGAN,1.131316670106798,79.90864562988281
815,397,71.0,7.128698629262367,-16.716391235889667,51.6746,-124.40299999999999,TATLAYOKO LAKE RCS,0.9243246865486009,85.72879791259766
815,432,68.0,7.133331673139345,-15.169367061339733,52.1831,-122.054,WILLIAMS LAKE A,0.9141373126524602,83.02146911621094
815,489,67.0,7.097323706908893,-12.626067082342265,52.8833,-118.06700000000001,JASPER,0.864307209027056,86.51663208007812
815,490,68.0,7.132905600093984,-12.59280256834153,52.9264,-118.03,JASPER WARDEN,0.880585562223909,86.18472290039062
815,553,69.0,7.1152353415096,-9.795438105772934,53.5732,-113.5175,EDMONTON CITY CENTRE A COMPOSITE,0.9577495865166556,80.40629577636719
815,1328,78.0,7.117358910371174,24.517097913492673,48.5333,-58.55,STEPHENVILLE A,0.9679311836540224,89.9379653930664
816,537,69.0,7.140820673012801,-10.527039980520042,53.4394,-114.71799999999999,TOMAHAWK AGDM,0.9619231170242583,80.05743408203125
816,545,69.0,7.16537115445447,-10.146260505635626,53.54735,-114.10799999999999,EDMONTON STONY PLAIN COMPOSITE,0.9601429713247289,80.20586395263672
816,556,71.0,7.169430466081352,-9.681257865613995,53.65,-113.35,OLIVER AGDM,0.9841961298420808,80.513671875
816,562,72.0,7.142646703644518,-9.39280651845686,53.6828,-112.868,ELK ISLAND NAT PARK,0.9997625461436453,80.37640380859375
816,594,75.0,7.142733701567932,-8.005841552539946,53.9428,-110.579,LINDBERGH AGDM,1.023231603585427,81.8050765991211
816,622,74.0,7.135252540529704,-6.770535142688353,54.1333,-108.51700000000001,MEADOW LAKE A COMPOSITE,1.0133773552837377,81.49922180175781
817,336,87.0,7.217536626163485,-19.408809155479275,50.7822,-128.42700000000002,CAPE SCOTT,1.0654957995962497,91.12980651855469
817,554,68.0,7.20031278290669,-9.74605025536421,53.6667,-113.46700000000001,EDMONTON NAMAO A COMPOSITE,0.9428507121199043,80.49314880371094
818,713,70.0,7.265476171623048,-2.7271258170741155,54.6833,-101.68299999999999,FLIN FLON COMPOSITE,0.9791509511979487,79.78868865966797
818,1244,75.0,7.2595427423462,20.768642084400955,50.2833,-63.6,HAVRE-SAINT-PIERRE A,1.0206456157643309,82.01234436035156
819,571,75.0,7.302630708009056,-9.002126367410352,53.9169,-112.279,ANDREW AGDM,1.033343326414732,81.00457763671875
819,585,74.0,7.282822993053725,-8.397715283859812,54.0111,-111.272,ST. PAUL AGCM,1.011129583675771,81.6803970336914
820,1395,86.0,7.3418976867710075,27.448261560571915,47.3283,-54.5853,MARTICOT ISLAND,1.061711791854252,90.40339660644531
823,404,69.0,7.486091580041017,-16.40919542363794,52.1144,-124.13600000000001,PUNTZI MOUNTAIN (AUT),0.9166673069876996,84.0098648071289
824,514,70.0,7.52991753280295,-11.510674313393835,53.5862,-116.46700000000001,EDSON A COMPOSITE,0.9917940201477164,78.77156829833984
824,1403,83.0,7.514621430997384,27.815292532611775,47.2939,-53.9933,ARGENTIA (AUT),1.022297779727665,90.6136474609375
825,1032,74.0,7.55110484508539,11.40209725081259,53.6333,-77.7,LA GRANDE RIVIERE A,0.951247698588677,86.82225036621094
826,599,69.0,7.579601901793152,-7.751283756222322,54.4167,-110.28299999999999,COLD LAKE A,0.9424032508993626,81.71565246582031
827,1268,78.0,7.646599951001509,21.855483859627054,50.1833,-61.8167,NATASHQUAN A,1.0333456921703246,84.24456787109375
827,1333,79.0,7.665818126824087,24.702111897273234,48.9333,-57.9167,CORNER BROOK,0.9902617832361981,89.03689575195312
828,570,73.0,7.681597894971211,-9.05791632634179,54.2775,-112.499,SMOKY LAKE AGDM,0.9982760577060842,81.61408996582031
829,544,72.0,7.743529592078992,-10.221767770910317,54.0947,-114.448,BARRHEAD CS,0.9945607622622822,80.79679107666016
829,564,74.0,7.742399627759254,-9.32678710198578,54.2833,-112.96700000000001,ABEE AGDM,1.015018523922038,81.36744689941406
831,581,73.0,7.809699892844955,-8.553772913280616,54.5,-111.7,RICH LAKE AGDM,1.0301328503458023,79.09017944335938
833,667,71.0,7.901462901160688,-4.759302141690492,55.1482,-105.2685,LA RONGE RCS COMPOSITE,0.9916094125325841,79.91175079345703
834,526,71.0,7.970771424867976,-10.980626536377773,54.1418,-115.7855,WHITECOURT COMPOSITE,0.9952837415925796,79.61673736572266
835,432,70.0,8.020634284705773,-15.164130981795742,53.0261,-122.51,QUESNEL A,0.941329932124935,82.99446105957031
835,925,77.0,7.980076893652368,6.671684239981935,54.9833,-85.4333,PEAWANUCK (AUT),1.0005059869948612,85.89422607421875
836,490,72.0,8.036429614482419,-12.598464775815508,53.795,-118.447,HENDRICKSON CREEK,0.9764273952736177,82.29727935791016
837,1336,75.0,8.075391192008935,24.868387906174352,49.2167,-57.4,DEER LAKE A,0.9314648517360496,89.86441040039062
838,578,71.0,8.109459289381412,-8.687796526019358,54.7689,-112.024,LAC LA BICHE CLIMATE,0.9845142541301171,80.48765563964844
838,705,70.0,8.138488938936142,-3.055518822819442,55.5333,-102.35,ISLAND FALLS (AUT),0.9457903815487482,82.6030502319336
840,568,74.0,8.213527245036316,-9.14271447786085,54.7817,-112.825,ATMORE AGDM,1.0134068592797287,81.4968490600586
840,1326,79.0,8.23989353197616,24.42289491438044,49.57,-57.8778,ROCKY HARBOUR CS,0.9829361561867126,89.70046997070312
840,1416,82.0,8.230534649080468,28.377457088340115,47.6222,-52.7428,ST JOHN'S A,1.0008904403422263,91.43663787841797
841,374,74.0,8.274041871210073,-17.733803823622914,52.3875,-126.596,BELLA COOLA A,0.9188850049455535,89.88008880615234
841,1357,77.0,8.276607341657702,25.763095697857583,48.9667,-56.0667,BADGER (AUT),0.9738313286623319,88.24699401855469
842,361,83.0,8.288057845471815,-18.311029088565448,52.1875,-127.471,CATHEDRAL POINT (AUT),1.039661845601085,89.10025024414062
842,763,70.0,8.306018505604065,-0.4898819825218631,55.8033,-97.8625,THOMPSON A,0.9613944032263418,81.2623519897461
842,1084,74.0,8.314253687711462,13.681998561384583,53.7572,-73.6792,LA GRANDE IV A,0.9470635460258712,87.2058334350586
847,1294,83.0,8.51185137838431,22.990534772134843,50.465,-59.6394,CHEVERY,1.0816402627154562,85.64227294921875
849,1389,82.0,8.608947022211417,27.178288344027237,48.5569,-53.9744,TERRA NOVA NAT PARK CS,1.032168689145209,88.6657943725586
850,345,86.0,8.650836671452103,-18.9954872190085,52.2617,-128.719,MCINNES ISLAND,1.0635989975976614,90.24298858642578
852,1376,79.0,8.74541391101366,26.63526688911577,48.94625,-54.5719,GANDER AIRPORT CS COMPOSITE,1.003723698602228,87.84273529052734
853,628,71.0,8.812475748517459,-6.464228930655402,55.83695,-108.427,BUFFALO NARROWS A COMPOSITE,0.9719203613687353,81.53059387207031
855,436,71.0,8.871679997996239,-14.978951097074027,53.8908,-122.679,PRINCE GEORGE A,0.9544093641707851,83.02647399902344
855,804,74.0,8.877158689736492,1.2852613930495622,56.3582,-94.7074,GILLAM COMPOSITE,0.979553257063343,84.31340026855469
856,313,87.0,8.9221102400567,-20.436114299632873,51.9333,-131.017,CAPE ST JAMES,1.065605441845958,91.12042999267578
856,1323,82.0,8.917592883317909,24.275196665536356,50.2364,-57.5811,DANIELS HARBOUR,1.022032527457171,89.54515075683594
856,1369,79.0,8.920267481638986,26.294066602940795,49.2667,-54.8833,COMFORT COVE,1.0060685395593254,87.63800048828125
857,545,72.0,8.953304446870465,-10.139585833530132,55.29165,-114.78299999999999,SLAVE LAKE A COMPOSITE,0.9910966677645777,81.07919311523438
857,695,75.0,8.975675671215516,-3.521382304920674,56.3333,-103.28299999999999,SOUTHEND,1.005064736641689,83.28372955322266
858,1398,82.0,8.995449237262823,27.614971456792322,48.6672,-53.1142,BONAVISTA,1.020991342396195,89.63646697998047
860,514,70.0,9.100559585566144,-11.541608424210233,55.0981,-117.199,VALLEYVIEW AGDM,0.9876551414897852,79.10166931152344
861,1022,76.0,9.143254450485722,10.963379553343792,55.2833,-77.75,KUUJJUARAPIK A,0.9509118109229349,89.2002944946289
863,1351,81.0,9.231985979494414,25.520707508907858,49.9167,-55.6667,LA SCIE,1.0413045236678495,86.81608581542969
864,525,70.0,9.284503540207844,-11.06298075782664,55.3958,-116.479,HIGH PRAIRIE AGDM,0.9715527631828297,80.41268920898438
865,1365,81.0,9.307897246727128,26.13004376259036,49.6833,-54.8,TWILLINGATE (AUT),1.0334817233100495,87.47322845458984
867,393,75.0,9.431478060616252,-16.88321751972789,53.7719,-125.99700000000001,OOTSA LAKESKINS LAKE CLIMATE,0.9625687955508908,86.96057891845703
867,493,68.0,9.437642625030247,-12.46008114715757,55.1797,-118.885,GRANDE PRAIRIE A,0.9496894786241625,79.91351318359375
867,723,70.0,9.423099719603844,-2.2572180214763757,56.8639,-101.07600000000001,LYNN LAKE A,0.9276531191985523,84.21808624267578
870,487,65.0,9.536136619901917,-12.739011854163321,55.1967,-119.396,BEAVERLODGE RCS,0.9019413455366003,80.43183898925781
871,340,85.0,9.606712845887811,-19.221120663833677,53.05,-129.683,ETHELDA BAY,1.0539925625895556,90.006591796875
873,420,68.0,9.67382747036811,-15.68054825705745,54.4167,-124.25,FORT ST JAMES A,0.9073785379113191,83.6398696899414
875,503,71.0,9.76951591837804,-12.009133970288808,55.6211,-118.29299999999999,PEORIA AGDM,0.9854870669795256,80.408203125
875,1321,84.0,9.748990532666745,24.169962329644125,51.0167,-57.1,FEROLLE POINT (AUT),1.075385590789168,87.17822265625
875,1336,83.0,9.792500942910612,24.868298591591508,50.7211,-56.1128,ENGLEE (AUT),1.0708673900265615,86.50382995605469
876,400,75.0,9.812902667229737,-16.586330772696368,54.2333,-125.76700000000001,BURNS LAKE,0.9757349415972527,85.78717041015625
877,597,69.0,9.871521038852975,-7.875701530273596,56.65055,-111.215,FORT MCMURRAY A COMPOSITE,0.9513044823872358,80.9510498046875
880,399,77.0,9.993147522311885,-16.63738722118312,54.3832,-125.959,BURNS LAKE DECKER LAKE,0.9948520728278778,86.38237762451172
880,492,70.0,9.986883825544258,-12.503884480613857,55.6947,-119.23,SPIRIT RIVER AUTO STATION,0.9667085132978844,80.81564331054688
880,668,74.0,10.01081133133084,-4.711898162748228,57.25,-105.6,KEY LAKE A,0.9673031945818087,85.38115692138672
883,1207,76.0,10.11636629865344,19.13577139970266,53.55,-64.1,CHURCHILL FALLS A,1.0066992196862634,84.25715637207031
883,1315,81.0,10.104162651119204,23.912489411212096,51.45,-57.1833,LOURDES DE BLANC SABLON A,1.0440121833695255,86.59092712402344
884,480,62.0,10.186876121441845,-13.011477242341922,55.7417,-120.182,DAWSON CREEK A,0.8650099571935734,79.99512481689453
885,517,68.0,10.226946829363605,-11.381198804475845,56.2269,-117.447,PEACE RIVER A,0.9360818094373906,81.07520294189453
885,649,73.0,10.211000872120755,-5.534482218850916,57.35,-107.133,CREE LAKE,0.9551923486950474,85.29527282714844
886,546,71.0,10.243617505655562,-10.117383444519708,56.552,-115.27799999999999,RED EARTH,0.966227991543933,82.01091766357422
887,315,83.0,10.323304131822256,-20.314453931732185,53.2539,-131.813,SANDSPIT A,0.9918361505627381,93.3966064453125
887,441,73.0,10.295420807028806,-14.765125833156345,55.3053,-123.13799999999999,MACKENZIE A,0.9465317836391991,86.0757064819336
887,594,70.0,10.29025448153633,-7.989638709553197,57.0411,-111.559,MILDRED LAKE,0.9503021224857022,82.21087646484375
889,462,64.0,10.382100207627825,-13.816510353920053,55.6872,-121.62700000000001,CHETWYND A,0.8826163481249631,80.92839813232422
889,1329,79.0,10.373611671056155,24.545692171940438,51.3833,-56.1,ST ANTHONY COMPOSITE,1.0192887198136675,86.50133514404297
892,1336,86.0,10.513143541501316,24.830079614182484,51.3667,-55.6,ST ANTHONY,1.1036528880076668,86.96788024902344
895,367,77.0,10.64544044520589,-18.038806278710556,54.4664,-128.577,TERRACE A,0.9447953971815802,90.95904541015625
895,387,74.0,10.665533425795687,-17.140960439352252,54.8247,-127.18299999999999,SMITHERS A,0.9244514430074323,89.3388900756836
895,490,71.0,10.663113773742156,-12.603736837825105,56.3144,-119.745,CLEARDALE AGDM,0.9615724406562257,82.4079818725586
895,1162,72.0,10.642722973708436,17.15060312140212,54.8,-66.8167,SCHEFFERVILLE A,0.9068568353298555,88.61080932617188
897,477,66.0,10.753806257076697,-13.163717285063106,56.2381,-120.74,FORT ST JOHN A,0.8990841611833563,81.92878723144531
899,693,75.0,10.84173036143908,-3.593483064969654,58.18665,-103.706,COLLINS BAY COMPOSITE,0.9819841402240063,85.2412338256836
901,342,83.0,10.925168419012316,-19.12359427311639,54.2925,-130.445,PRINCE RUPERT A,1.0140237389195463,91.35301971435547
902,522,73.0,10.948419695171538,-11.184218485505541,56.9739,-117.45100000000001,MANNING AGDM,1.0611817989207963,76.77609252929688
909,810,77.0,11.268490682622877,1.5517817622508403,58.7392,-94.0664,CHURCHILL A,0.9797593303999661,87.71305847167969
909,1322,77.0,11.25568296128817,24.23008477401911,52.3036,-55.83305,MARY'S HARBOUR A COMPOSITE,0.9936375725049406,86.48796081542969
915,310,88.0,11.545163694436308,-20.54536787529786,54.2552,-133.058,LANGARA,1.0578906545559126,92.83993530273438
924,607,71.0,11.942013308392715,-7.427243662432282,58.7667,-111.117,FORT CHIPEWYAN A,0.9578423868991878,82.72889709472656
926,670,72.0,12.01176366560062,-4.604034071073405,59.25,-105.833,STONY RAPIDS A,0.9365658623604852,85.79996490478516
928,547,73.0,12.118719845803014,-10.074177481250986,58.3823,-116.04,FORT VERMILION,0.9864288478081444,82.59429168701172
929,574,79.0,12.174502673448476,-8.86753025568397,58.7108,-113.866,GARDEN RIVER,1.0704335628843584,82.36833953857422
930,1000,79.0,12.187637204389825,9.989987113095877,58.4693,-78.0801,INUKJUAK UA COMPOSITE,0.9738500410925249,90.53738403320312
932,364,82.0,12.314069788778712,-18.18701005126701,55.9361,-129.985,STEWART A,0.992682953079367,92.19263458251953
937,535,68.0,12.498830656358052,-10.594224739549533,58.6214,-117.165,HIGH LEVEL A,0.9310344335597884,81.51473236083984
937,641,72.0,12.505036006001426,-5.928649267233507,59.5667,-108.48299999999999,URANIUM CITY (AUT),0.939796242118228,85.50504302978516
942,1251,77.0,12.741825670817573,21.086584257574323,55.0822,-59.1886,MAKKOVIK A,0.9873204080499292,87.04133605957031
954,603,72.0,13.25566504900323,-7.607541496645303,60.0232,-111.9455,FORT SMITH A COMPOSITE,0.9592220140164675,83.77342987060547
957,1115,73.0,13.3816017084914,15.062915391847254,58.1,-68.4167,KUUJJUAQ A,0.9139614836256273,89.14313507080078
957,1207,74.0,13.419876797675242,19.12294867359371,56.55,-61.6833,NAIN COMPOSITE,0.9509411069063083,86.8502426147461
960,474,70.0,13.53351926237463,-13.294599528109782,58.8364,-122.59700000000001,FORT NELSON A,0.978055345026234,79.87806701660156
962,807,82.0,13.627521603757163,1.4581972729819246,61.1,-94.0667,ARVIAT A COMPOSITE,1.0292318861433856,88.91879272460938
981,564,71.0,14.468214057228929,-9.32324361570522,60.8393,-115.78,HAY RIVER A COMPOSITE,0.9538679378910359,83.07360076904297
984,387,74.0,14.589755925069625,-17.149025860475014,58.42553333,-130.0226667,DEASE LAKE COMPOSITE,0.9162282705962106,90.14070892333984
993,475,71.0,14.997500532148845,-13.242353392775371,60.2333,-123.46700000000001,FORT LIARD,1.0062560574828654,78.74858856201172
997,547,71.0,15.15615711513494,-10.077110170574896,61.3169,-117.602,FORT PROVIDENCE,0.9493061585512573,83.4728012084961
1002,827,77.0,15.389341884371548,2.3116704332428544,62.8167,-92.1167,RANKIN INLET A,0.9543789041673055,90.04566955566406
1004,627,70.0,15.491470329004402,-6.5299173223889415,62.4156,-110.69,LUTSELK'E CS,0.8995192882901268,86.85213470458984
1008,644,73.0,15.665372425277164,-5.759402027381535,62.71405,-109.1675,FORT RELIANCE COMPOSITE,0.9263073392026921,87.95503234863281
1013,416,70.0,15.880923220563833,-15.851020784876589,60.1165,-128.822,WATSON LAKE A,0.9254054635438103,84.42263793945312
1013,587,66.0,15.8941364226464,-8.283411299371597,62.4628,-114.44,YELLOWKNIFE A,0.8658945355633565,85.06910705566406
1018,473,70.0,16.127037568073327,-13.349857386820682,61.2567,-124.46799999999999,DEADMEN VALLEY,0.9043857343475215,86.3847885131836
1018,511,73.0,16.085824204153216,-11.662896594650553,61.7603,-121.23700000000001,FORT SIMPSON A COMPOSITE,0.9760727811825396,83.47061157226562
1022,690,78.0,16.296719225433336,-3.7576483250916217,63.6,-105.133,HANBURY RIVER,0.9773550683043566,89.07076263427734
1033,375,71.0,16.761427364583458,-17.661919021479473,60.1704,-132.7345,TESLIN A COMPOSITE,0.8866578573329876,89.37071228027344
1034,784,74.0,16.80137872475479,0.41775555963923183,64.2989,-96.0778,BAKER LAKE A,0.92257396543272,89.52069854736328
1035,562,73.0,16.86203978958295,-9.404454925856033,63.1336,-117.245,LAC LA MARTRE,0.9507241292615191,85.6961441040039
1043,914,75.0,17.235601653792568,6.170803303022934,64.1933,-83.3594,CORAL HARBOUR A,0.9190851798632078,91.07484436035156
1055,638,77.0,17.73073436889728,-6.0628760300721645,64.6989,-110.615,EKATI A,0.9587417297685322,89.63591003417969
1056,357,66.0,17.7729222850007,-18.468791200743226,60.7095,-135.069,WHITEHORSE A,0.8252977157606974,89.25370025634766
1060,982,79.0,17.945778795694643,9.198410704987277,64.2303,-76.525,CAPE DORSET A,0.955342414975446,92.29134368896484
1070,333,67.0,18.431001006079605,-19.56058255517341,60.7725,-137.58,HAINES JUNCTION,0.8446059088076663,88.53472137451172
1075,1065,77.0,18.61430228253761,12.847934209073113,63.7486,-68.5472,IQALUIT A COMPOSITE,0.9364694155402604,91.76774597167969
1077,391,69.0,18.715016646635824,-16.975755181391452,62.2072,-133.3745,FARO A COMPOSITE,0.8612929904323707,89.4110336303711
1079,636,78.0,18.822067679202526,-6.129352998978208,65.7592,-111.25,LUPIN A,0.965892038464034,90.12783813476562
1090,325,68.0,19.306314193603082,-19.882004589804254,61.3667,-139.05,BURWASH A,0.8929460515562486,84.9917221069336
1098,516,75.0,19.663546246690753,-11.432770199531417,65.2086,-123.43299999999999,DELINE CS,0.9614411067659687,87.06257629394531
1112,486,67.0,20.251751757393915,-12.786591017652583,65.285,-126.7765,NORMAN WELLS A COMPOSITE,0.8552714269000464,87.4306640625
1117,383,71.0,20.495251114049235,-17.3192127506522,63.6167,-135.86700000000002,MAYO A,0.8882197109038349,89.21356201171875
1120,321,69.0,20.64611864520335,-20.05859822861877,62.4103,-140.868,BEAVER CREEK A,0.8890834802664153,86.61627197265625
1132,611,79.0,21.164558334912606,-7.2414532923086385,67.81695,-115.1395,KUGLUKTUK A COMPOSITE,0.9824380526187212,89.7459487915039
1132,785,82.0,21.138921535217452,0.44902530231432797,68.6356,-95.8503,GJOA HAVEN CLIMATE,1.0010849809459756,91.41886901855469
1132,838,77.0,21.168269643134604,2.820157471562718,68.5375,-89.7964,KUGAARUK CLIMATE,0.9390833975396203,91.5123062133789
1135,1069,72.0,21.28843459550038,13.026649004652166,66.145,-65.7136,PANGNIRTUNG A,0.8862723471645332,90.66887664794922
1138,478,73.0,21.43659517878678,-13.124659609447363,66.2422,-128.644,FORT GOOD HOPE CS,0.9349680325757194,87.14029693603516
1142,359,70.0,21.60635893049916,-18.40222896408782,64.05199999999999,-139.1275,DAWSON A COMPOSITE,0.8795897010009756,88.82001495361328
1143,632,82.0,21.661324385943654,-6.322944136993754,68.5,-113.21700000000001,LADY FRANKLIN POINT A,1.0145607189901928,90.2046127319336
1145,508,77.0,21.74932347936409,-11.803610114555505,67.0214,-126.12299999999999,COLVILLE LAKE,0.9740341908734373,88.2286148071289
1146,704,79.0,21.771353847100382,-3.1159972251081784,69.1081,-105.13799999999999,CAMBRIDGE BAY A COMPOSITE,0.9704475218498164,90.85482025146484
1149,912,79.0,21.893848234284437,6.082122147370087,68.7758,-81.2425,HALL BEACH A,0.9713332494716224,90.77197265625
1160,1100,75.0,22.39945260697579,14.412454916130438,66.5833,-61.6167,CAPE DYER A,0.9164551247752787,91.33621215820312
1163,474,72.0,22.551131746181326,-13.304558056771857,67.1792,-130.22799999999998,LITTLE CHICAGO,0.9142319180372702,87.89598846435547
1170,1069,78.0,22.83741019766121,13.033776520184484,67.5458,-64.0314,QIKIQTARJUAQ A,0.9608257825146014,90.60306549072266
1171,1071,82.0,22.868701178463567,13.129046420759014,67.5356,-63.7889,FOX FIVE,1.0097763806201694,90.63200378417969
1184,421,75.0,23.480497388330893,-15.638171778396813,66.9811,-136.218,ROCK RIVER,0.9375175975640948,89.28423309326172
1184,575,82.0,23.44235374761187,-8.826311309401945,69.5833,-120.8,CLINTON POINT,1.0206143290415863,89.6695785522461
1188,547,80.0,23.628469659569642,-10.089579069383861,69.3578,-124.083,PAULATUK,0.9988542181069829,89.3883285522461
1199,460,71.0,24.124623751581403,-13.937953309449579,68.31045,-133.5,INUVIK A COMPOSITE,0.8992340865125562,88.12081909179688
1202,608,79.0,24.25257185841111,-7.373396591071229,70.7614,-117.8,HOLMAN CS,0.9692393628613075,90.96807098388672
1207,549,83.0,24.460936365558343,-9.983429469768042,70.1667,-124.71700000000001,CAPE PARRY A,1.0292280707411354,90.00350189208984
1212,400,72.0,24.7216824726706,-16.594913935534528,67.5706,-139.839,OLD CROW A COMPOSITE,0.8965937574843719,89.62511444091797
1215,514,82.0,24.832678410066798,-11.546456477131793,69.9333,-128.967,NICHOLSON PENINSULA,1.007154999037889,90.8678970336914
1215,1003,77.0,24.854671892755793,10.111462339176834,70.4861,-68.5167,CLYDE A,0.9337827734159887,92.03177642822266
1219,477,80.0,25.030944279325773,-13.174092855261414,69.43886667,-133.01433329999998,TUKTOYAKTUK COMPOSITE,0.9894297999651308,90.23976135253906
1227,438,81.0,25.359134172031187,-14.871314613656038,68.95,-137.217,SHINGLE POINT A,1.0093792564340687,89.56195831298828
1240,914,74.0,25.95102437247518,6.194640307498111,72.6894,-77.9689,POND INLET A,0.8959236199423318,92.18360137939453
1244,419,71.0,26.1095088620721,-15.71801209818014,69.1644,-140.15,IVVAVIK NAT. PARK,0.8868680285868463,89.34953308105469
1246,562,84.0,26.214275750688063,-9.387968858171986,71.9925,-125.25399999999999,SACHS HARBOUR CLIMATE,1.0316107928488985,90.87749481201172
1252,425,84.0,26.46237673783208,-15.465895824824763,69.5833,-140.183,KOMAKUK BEACH A,1.052877486212989,89.0418930053711
1259,614,81.0,26.768680893281097,-7.115011108950228,73.2308,-119.538,THOMSEN RIVER,0.9907410385727312,91.24683380126953
1269,788,78.0,27.22416020466172,0.599798396843279,74.71635,-94.97625,RESOLUTE CARS COMPOSITE,0.9299843994185443,93.6077651977539
1279,618,81.0,27.669419059365698,-6.922336498707367,74.1389,-119.98899999999999,NANGMAGVIK LAKE,0.9831050628012744,91.95556640625
1323,640,79.0,29.599335786158985,-5.970276831056421,76.2354,-119.34,MOULD BAY A COMPOSITE,0.9503448756590677,92.77667236328125
1391,826,70.0,32.64541886648805,2.272431308433523,79.9833,-85.9333,EUREKA A,0.8361492613109416,93.43447875976562
1472,894,79.0,36.21327590231115,5.277068396838443,82.5089,-62.30695,ALERT COMPOSITE,0.9734260354639931,90.57682037353516
