ilocy,ilocx,Q10_Gumbel-MM,rlat,rlon,lat,lon,station_name,ratio,model_vals
558,1009,0.275,-4.286303317504344,10.373533646905495,42.27611111,-82.95527778,WINDSOR A,0.7738990254675256,0.3000212013721466
576,1016,0.298,-3.48804380801358,10.70911725486623,42.99944444,-82.30888889,SARNIA,0.8195830655843176,0.306991845369339
579,1050,0.287,-3.3353689590638744,12.206823049227507,42.85,-80.26666667,SIMCOE,0.6869857671805623,0.35272619128227234
580,1035,0.27,-3.2904168437142984,11.534369212852347,43.03305556,-81.15111111,LONDON A,0.6223983523146281,0.3662679195404053
587,1054,0.34,-2.9672462089752716,12.374482460573976,43.17361111,-79.935,HAMILTON A,0.8080292913149125,0.35526740550994873
591,1056,0.19,-2.8224940050071763,12.44308227059991,43.3,-79.8,BURLINGTON PIERS (AUT),0.489154133348777,0.32795286178588867
591,1066,0.29,-2.8263537576593833,12.914368822069164,43.19166667,-79.17111111,ST CATHARINES A,0.7390916451490679,0.33128613233566284
592,1046,0.218,-2.755708330772456,11.997290400172446,43.46083333,-80.37861111,KITCHENER-WATERLOO,0.5266701617977285,0.34947919845581055
592,1065,0.32,-2.7770194854473744,12.868806527061649,43.25,-79.21666667,PORT WELLER (AUT),0.8126739291010452,0.3324583172798157
595,1023,0.207,-2.65276038889117,10.985517938364806,43.76666667,-81.71666667,GODERICH,0.5270614764098843,0.33159855008125305
599,1060,0.315,-2.4383661704221993,12.656933578522423,43.6275,-79.39611111,TORONTO CITY CENTRE,0.913407811751521,0.2911718487739563
600,1057,0.287,-2.4280374478097446,12.48046411804727,43.67666667,-79.63055556,TORONTO INTL A,0.8349210527588222,0.2902284860610962
603,1037,0.245,-2.3007719587955977,11.625339745869262,43.98333333,-80.75,MOUNT FOREST (AUT),0.6647356032232861,0.31118646264076233
605,1060,0.20600000000000002,-2.2064892992981635,12.624161363112355,43.86083333,-79.36861111,TORONTO BUTTONVILLE A,0.6309629560803681,0.2756556570529938
611,1078,0.26899999999999996,-1.9198477837726322,13.446705882854868,43.95,-78.16666667,COBOURG (AUT),0.8606073360598305,0.26390692591667175
613,1095,0.465,-1.8539753644643515,14.186065075654536,43.83333333,-77.15,POINT PETRE (AUT),2.145802082745316,0.1829645037651062
616,1043,0.21,-1.7154646708868815,11.890724603560995,44.5,-80.21666667,COLLINGWOOD,0.8509347461376113,0.20836587250232697
617,1074,0.19,-1.681286926386074,13.24303297256795,44.23,-78.36333333,PETERBOROUGH,0.6648937681779012,0.24127086997032166
617,1087,0.303,-1.6479580998039793,13.848365534890087,44.11666667,-77.53333333,TRENTON A,1.2057460550040215,0.21217310428619385
618,1028,0.255,-1.608330023712921,11.218755263733659,44.74416667,-81.10861111,WIARTON A,1.1543873035212053,0.1865057349205017
620,1059,0.265,-1.5131617290709791,12.576278873912775,44.54722222,-79.21666667,LAGOON CITY,1.4208971581828598,0.15746599435806274
623,1101,0.278,-1.376287929563316,14.47009238904273,44.22333333,-76.59944444,KINGSTON CLIMATE,1.5004794936407198,0.15642936527729034
629,1055,0.141,-1.1104223325675606,12.42021185602272,44.97472222,-79.30333333,MUSKOKA,1.1424625515090243,0.10420311242341995
637,1077,0.067,-0.7819711108327801,13.376973995423196,45.07138889,-77.87888889,BANCROFT AUTO,0.7600197521240933,0.0744309350848198
639,1000,0.27399999999999997,-0.690069370908283,9.992653603870442,45.88166667,-82.56722222,GORE BAY-MANITOULIN,1.636926662857206,0.1413269191980362
647,968,0.284,-0.3265597809046357,8.564149867880838,46.485,-84.50972222,SAULT STE MARIE A,2.042450899236503,0.11740058660507202
651,1109,0.221,-0.14743254423379257,14.821932295193472,45.31666667,-75.66666667,OTTAWA INTL A,1.4583649392765996,0.1279468536376953
653,1132,0.18,-0.06744339856063078,15.80836957099062,45.12083333,-74.28944444,ST-ANICET 1,1.0525128729437052,0.14439383149147034
657,1141,0.151,0.10111418445683244,16.207357598047103,45.16722222,-73.67888889,STE-CLOTHILDE,0.8794068853913827,0.14497417211532593
658,1081,0.155,0.16637183265387717,13.543770494311032,45.95,-77.31666667,PETAWAWA A,1.6372034304782679,0.07993419468402863
658,1154,0.102,0.146891087188546,16.805817882306044,45.03333333,-72.85,FRELIGHSBURG,0.8182952941280109,0.10524310916662216
660,1046,0.17800000000000002,0.2247776229261326,12.027567413504922,46.36388889,-79.42416667,NORTH BAY A,1.93668144760671,0.07760065048933029
661,1024,0.252,0.27781895532178186,11.047848727345684,46.62555556,-80.79777778,SUDBURY A,1.4408671984826817,0.147665873169899
661,1135,0.146,0.298783997656161,15.963386826741665,45.42722222,-73.92916667,STE-ANNE-DE-BELLEVUE 1,0.6660111748652302,0.18508656322956085
661,1145,0.20199999999999999,0.29036027254180596,16.391913068259413,45.29388889,-73.34944444,L'ACADIE,0.9700312879890207,0.17582036554813385
663,1138,0.28,0.37857540410213814,16.077265709536555,45.47055556,-73.74083333,MONTREAL INTL A,1.1922078565969758,0.1982940137386322
664,1140,0.045,0.4443774501594452,16.175677570505083,45.50474167,-73.57916667,MCTAVISH,0.18461219571705748,0.20580488443374634
666,1132,0.175,0.5192700488528611,15.816969557831044,45.68055556,-74.03861111,MONTREAL MIRABEL INTL A,0.8401922022694058,0.17585833370685577
666,1142,0.314,0.48999635800437125,16.28058561419673,45.5175,-73.41694444,MONTREAL-ST-HUBERT,1.2735003087520265,0.20817767083644867
668,1049,0.086,0.611689446314243,12.166437121629148,46.70972222,-79.10111111,BARRAGE TEMISCAMINGUE,0.9391770618106834,0.07731335610151291
669,1266,0.317,0.6582772202422525,21.75509070422866,43.82694444,-66.08805556,YARMOUTH A,1.4565922452819762,0.18374893069267273
670,1142,0.28600000000000003,0.6947066382437866,16.246814370360987,45.72305556,-73.37666667,VARENNES,1.1543874512206846,0.20917895436286926
670,1167,0.15,0.6886675344034751,17.390730548630025,45.36888889,-71.82361111,LENNOXVILLE,1.369974660300879,0.0924447551369667
671,1099,0.127,0.7156465063613154,14.348220031587388,46.27472222,-75.99194444,MANIWAKI AIRPORT,1.452175747931829,0.07383938878774643
672,1140,0.159,0.7652954192167273,16.18261869647524,45.80944444,-73.43472222,L'ASSOMPTION,0.7125102160921372,0.18841244280338287
672,1169,0.18100000000000002,0.7840438481593633,17.456938030254612,45.43861111,-71.69138889,SHERBROOKE,1.6011655405317726,0.09544339776039124
673,1122,0.051,0.799998920943068,15.358009694295855,46.08027778,-74.55583333,ST-JOVITE,0.4960015803527828,0.08681418001651764
673,1126,0.182,0.8244914525008411,15.547936197870108,46.05,-74.28333333,STE AGATHE DES MONTS,1.6103412390665546,0.0954238697886467
677,1258,0.47200000000000003,1.013103054271252,21.40977380568075,44.28583333,-66.34666667,BRIER ISLAND,2.3380035203053513,0.1704513281583786
679,959,0.16,1.1072002167220376,8.144863040258011,47.96694444,-84.78638889,WAWA A,1.291023979660635,0.10463795065879822
680,890,0.22,1.123588995196667,5.093086699236781,48.37194444,-89.32166667,THUNDER BAY A,1.9729276967252658,0.09414885938167572
682,1286,0.301,1.2052816300768616,22.63821273524277,43.99001944,-64.66416889,WESTERN HEAD,1.1304485866564933,0.2248118668794632
684,1149,0.22699999999999998,1.324226130258862,16.573181133601576,46.22583333,-72.65722222,NICOLET,1.0416587777422472,0.1839941143989563
686,854,0.11699999999999999,1.3834476126927673,3.5392813362570417,48.76111111,-91.62805556,ATIKOKAN (AUT),0.6769604594786028,0.14592379331588745
687,1033,0.22,1.4595507371864511,11.452180728681906,47.695,-79.84888889,EARLTON A,2.068849782854304,0.08978365361690521
688,1150,0.22899999999999998,1.4756457357241934,16.6271170400325,46.35361111,-72.51611111,TROIS-RIVIERES,1.1358833300749784,0.17021793127059937
689,766,0.345,1.5321578097717676,-0.3672940852556362,49.03083444,-97.56000083,GRETNA (AUT),0.7634036747036065,0.3815648853778839
689,795,0.171,1.5319026633467594,0.9194147961794182,49.02361111,-95.59833583,SPRAGUE,0.6513709925464265,0.22165179252624512
691,1237,0.10400000000000001,1.6327235234971353,20.468971389030212,45.21016667,-67.25286111,ST. STEPHEN,0.5645962301270868,0.15552453696727753
692,949,0.11699999999999999,1.682248851832476,7.721145960612029,48.6,-85.28333333,WHITE RIVER,0.8174963072807893,0.12083802372217178
693,746,0.276,1.706290339740612,-1.2453221511382133,49.19102778,-98.90486111,PILOT MOUND (AUT),0.65593180595088,0.3552662432193756
693,1177,0.087,1.7124441297757003,17.80970706466286,46.205,-70.785,BEAUCEVILLE,0.7149133368156446,0.10274706035852432
696,649,0.302,1.8530514501478257,-5.551265309445778,49.05,-105.48333329999998,CORONACH SPC,0.657278583170531,0.3879368305206299
696,686,0.33899999999999997,1.8598123330635636,-3.8954003503245587,49.21027778,-102.9658333,ESTEVAN A,0.707002882606994,0.4048387408256531
696,716,0.222,1.8479818411730005,-2.6006345964591766,49.28127778,-100.9863611,MELITA,0.5059873060305057,0.37043917179107666
700,618,0.292,2.02968059125335,-6.918528831774791,49.05833361,-107.58583610000001,VAL MARIE SOUTHEAST,0.6610420828710846,0.3729557394981384
700,759,0.17800000000000002,2.0025447055693135,-0.6691828279800607,49.49811111,-98.02975,CARMAN U OF M CS,0.42907320843234115,0.35026130080223083
701,1273,0.324,2.0477919209758024,22.081841079598306,44.98333333,-64.91666667,GREENWOOD A,1.4416103162387686,0.18975825607776642
702,1007,0.134,2.1037091825759284,10.272107662608434,48.57055556,-81.37666667,TIMMINS A,1.0136720930907213,0.1116119921207428
702,1043,0.141,2.117947158040492,11.861593259295349,48.24583333,-79.03416667,ROUYN,1.1957572122775628,0.09955880045890808
702,1046,0.159,2.1095497258728697,11.999579208352097,48.20611111,-78.83555556,ROUYN-NORANDA A,1.3254331560564179,0.1012844666838646
702,1062,0.152,2.1272375140852886,12.718936624841794,48.05333333,-77.78277778,VAL D'OR A,0.894648857318103,0.14344801008701324
702,1256,0.264,2.0893637137531003,21.319625857738036,45.31611111,-65.89,SAINT JOHN A,0.9792228199006144,0.22762814164161682
703,1164,0.262,2.132277043565629,17.22403660651413,46.79111111,-71.39333333,QUEBEC INTL A,1.5193545833331499,0.1455947458744049
703,1165,0.175,2.1451633278208866,17.296217277429587,46.78027778,-71.2875,STE-FOY (U. LAVAL),1.0059854782948117,0.14687567949295044
703,1297,0.321,2.1285387762167187,23.143738029513393,44.63333333,-63.5,SHEARWATER A,1.0706317901197548,0.2531444728374481
707,813,0.16899999999999998,2.3172352583415843,1.703488929625912,49.78833333,-94.36305556,KENORA A,1.0724465042000138,0.13304992020130157
708,576,0.32899999999999996,2.3773235953818492,-8.77507302987451,49.11666667,-110.46666670000002,ONEFOUR CDA,0.8633258787689196,0.3217545449733734
708,675,0.302,2.392352772509108,-4.39599211308612,49.7,-103.8,WEYBURN,0.6299803540337785,0.4047468602657318
708,1295,0.35200000000000004,2.352354449005868,23.037177573707574,44.88111111,-63.50861111,HALIFAX INTL A,1.0159335854710723,0.29253706336021423
709,740,0.213,2.4288519831726374,-1.519417526912051,49.90580556,-99.35744444,CARBERRY CS,0.6189992567050306,0.29053136706352234
709,756,0.27149999999999996,2.4083164808904542,-0.8221767079430446,49.901569445,-98.27540278000001,PORTAGE SOUTHPORT A,0.7323262097415666,0.3130176365375519
709,771,0.284,2.4102388711197187,-0.1546942168317851,49.91,-97.24,WINNIPEG INTL A,0.7484380966754941,0.32038044929504395
709,837,0.17600000000000002,2.402703651893969,2.7463410647526323,49.8275,-92.74416667,DRYDEN REGIONAL,1.0420911926798122,0.142597034573555
709,1242,0.203,2.4301608295874497,20.69102009227779,45.86888889,-66.53722222,FREDERICTON,1.4530634600182477,0.11795463413000107
710,732,0.303,2.446136788495766,-1.902443550978571,49.91,-99.95222222,BRANDON A,1.0052834889759785,0.25448232889175415
710,1171,0.431,2.4557024255946307,17.536467226809375,46.99666667,-70.80833333,ILE D'ORLEANS,2.6971417182134303,0.13492022454738617
712,599,0.354,2.5373799207670418,-7.770516223099108,49.43778056,-108.988625,EASTEND CYPRESS (AUT),0.8140978951168891,0.36713871359825134
712,644,0.31,2.5616574714663254,-5.774843358851855,49.72919167,-105.9461139,ASSINIBOIA AIRPORT,0.7151518629695622,0.3659881055355072
712,1109,0.061,2.5545142294849863,14.795061306408192,47.92222444,-74.62416861,PARENT,0.4928438858822755,0.10450185835361481
712,1171,0.17300000000000001,2.539281126555128,17.527472888722397,47.07861111,-70.78083333,CAP-TOURMENTE,1.138929952765356,0.12824860215187073
713,553,0.327,2.5820339466703155,-9.791870424322251,49.13333333,-112.05,MILK RIVER,0.8013211094735178,0.34454402327537537
713,1356,0.545,2.5865558135085105,25.731151722331923,43.94611111,-59.95972222,SABLE ISLAND A,1.6185387596401164,0.2843000590801239
715,788,0.105,2.680835943980643,0.599606479581388,50.17722778,-96.06472222,PINAWA,0.3932246958555649,0.22545094788074493
715,921,0.16699999999999998,2.6985132756667336,6.484740405051936,49.77861111,-86.93861111,GERALDTON A,1.31362186054729,0.10733705013990402
716,848,0.147,2.721186628111753,3.2664137243959526,50.11416667,-91.90805556,SIOUX LOOKOUT A,1.1440514675837563,0.10848640650510788
717,592,0.14400000000000002,2.791096203892551,-8.076095167585466,49.64055806,-109.5144456,CYPRESS HILLS PARK,0.3381533258839975,0.3595442771911621
717,987,0.17300000000000001,2.7916554952604735,9.406867820066804,49.41166667,-82.46833333,KAPUSKASING A,1.2603371282999738,0.11589452624320984
718,528,0.431,2.8129668370825396,-10.920374535676116,49.13113333,-113.8086139,WATERTON PARK GATE,1.4913578584790586,0.24400512874126434
718,536,0.192,2.8089927644936328,-10.571167858737764,49.200575,-113.2858389,CARDSTON,0.4891530091040423,0.33140575885772705
719,1291,0.33399999999999996,2.8534843231962084,22.845763158855647,45.41666667,-63.46666667,DEBERT,1.4652929690008378,0.19245338439941406
719,1294,0.24100000000000002,2.8652809063512636,22.994566723392392,45.36666667,-63.26666667,TRURO (AUT),1.0154886569290786,0.20037591457366943
720,1161,0.078,2.8986234994689877,17.08311890059295,47.56222222,-71.22888889,L'ETAPE,0.5104825208248123,0.1290081888437271
721,1179,0.337,2.969005325500165,17.91640842882544,47.35583333,-70.03194444,LA POCATIERE,2.556806348947148,0.11128474026918411
722,694,0.295,2.9954839618510443,-3.5549138744833266,50.36805556,-102.5708333,BROADVIEW,0.7342177917880423,0.33923500776290894
722,723,0.24600000000000002,3.00813617049279,-2.2965626638232313,50.45488889,-100.6035,SHOAL LAKE CS,0.8405308625897823,0.24710696935653687
722,760,0.267,3.00386083349919,-0.6602998402221041,50.49945667,-98.036675,OAKPOINT MARINE,0.7981137100970419,0.2824555039405823
723,594,0.255,3.044709334204974,-8.003371579967343,49.90251389,-109.4661278,MAPLE CREEK,0.5715655328717857,0.3766844570636749
724,564,0.273,3.098874115547959,-9.29527030155278,49.73418611,-111.4502778,BOW ISLAND,0.6636516556943495,0.3473169803619385
724,891,0.15,3.0628444493427165,5.168536441565418,50.29361111,-88.90527778,ARMSTRONG (AUT),1.1398490325405541,0.11110854893922806
725,651,0.316,3.132735896199253,-5.4551941435774065,50.332506945000006,-105.5520875,MOOSE JAW A,0.685702458831479,0.38909435272216797
725,774,0.218,3.133343547615983,-0.03176152251228218,50.63333333,-97.05,GIMLI CLIMATE,0.7079240448045054,0.2600000202655792
726,489,0.12300000000000001,3.1702303156207052,-12.649133317055378,49.08168944,-116.50068030000001,CRESTON CAMPBELL SCIENTIFIC,0.8892266398364865,0.11678745597600937
726,545,0.43200000000000005,3.165022329592455,-10.172827418272798,49.63027778,-112.7988889,LETHBRIDGE,1.1046432565155175,0.3301910161972046
726,664,0.348,3.1730632556920284,-4.8820645473925355,50.43222222,-104.6661111,REGINA INTL A,0.7515542351039625,0.39095112681388855
726,732,0.075,3.1903525258318917,-1.8675652895921906,50.65500167,-99.94194667,WASAGAMING,0.39018438599385824,0.16229118406772614
726,1267,0.308,3.151265509927931,21.790803679126054,46.11222222,-64.67861111,MONCTON INTL A,1.4053774862576192,0.18503814935684204
727,527,0.667,3.219698343118908,-10.956891855957187,49.52055556,-113.99722220000001,PINCHER CREEK,1.915251048715072,0.29403814673423767
727,545,0.275,3.224344841091907,-10.139873148240085,49.695,-112.7675,LETHBRIDGE CDA,0.7066178014569955,0.32858797907829285
727,679,0.27899999999999997,3.2308577774768055,-4.226503991244114,50.55,-103.65,INDIAN HEAD CDA,0.6387146743113503,0.36880844831466675
727,781,0.304,3.200766413554716,0.27489230629413614,50.7,-96.56666667,VICTORIA BEACH (AUT),1.2895436105309557,0.19904033839702606
728,620,0.34850000000000003,3.2503764467056726,-6.832765655738073,50.279305555,-107.71194444999998,SWIFT CURRENT,0.7970974237198682,0.3691432476043701
728,738,0.18100000000000002,3.2380598177335678,-1.6042959815747406,50.71194472,-99.53000083,MCCREARY,0.816290157373978,0.18721367418766022
729,576,0.293,3.2944606413386714,-8.780880812800653,50.01888889,-110.72083329999998,MEDICINE HAT,0.7304070564508383,0.3386929929256439
731,521,0.157,3.3928706225609435,-11.240659239068288,49.627525,-114.48195,CROWSNEST,0.609566552943433,0.21746134757995605
733,556,0.28800000000000003,3.4919882042729453,-9.668493619430778,50.05,-112.13333329999999,VAUXHALL CDA CS,0.7409339446556085,0.3281833529472351
734,1183,0.187,3.5026613441783248,18.07159315492528,47.80583333,-69.54861111,RIVIERE-DU-LOUP,1.390089243263162,0.11358015984296799
735,474,0.171,3.565095085022112,-13.311513059059466,49.29611111,-117.6325,CASTLEGAR A,1.6092867193798424,0.08971524238586426
735,502,0.141,3.5715724287243624,-12.065345530500947,49.61222222,-115.78194440000001,CRANBROOK A,0.8944039490031933,0.13310334086418152
735,515,0.18600000000000003,3.5656954494166606,-11.468142510374218,49.745,-114.8839,SPARWOOD CS,1.054133643153692,0.14897754788398743
735,767,0.138,3.5846062509781897,-0.3490103538669817,51.08336111,-97.5545,FISHER BRANCH (AUT),0.507817692761711,0.2294429987668991
735,1139,0.22699999999999998,3.589204874556557,16.1218655276776,48.52,-72.26583333,ROBERVAL A,1.7481050007870904,0.10963819921016693
736,446,0.1,3.628022144320439,-14.524791441949997,49.02829167,-119.44099170000001,OSOYOOS CS,0.6788963058001951,0.12436555325984955
736,820,0.16899999999999998,3.60887478161026,2.018637748676641,51.06722222,-93.79305556,RED LAKE A,1.5588174139075548,0.09153664857149124
737,534,0.47,3.6421127241754636,-10.626784979767747,50.00363056,-113.6386361,CLARESHOLM,1.3565237892337907,0.29253241419792175
737,731,0.28800000000000003,3.6385454019366055,-1.9201452319280081,51.10083333,-100.0525,DAUPHIN,1.2145245198029306,0.20021183788776398
737,1158,0.243,3.6779852770256394,16.979456792711613,48.33333333,-71.0,BAGOTVILLE A,1.9642714089233793,0.10444997251033783
738,1276,0.359,3.684848285505142,22.19274231102992,46.44111111,-63.83805556,SUMMERSIDE,1.3244387689993335,0.22885800898075104
739,383,0.544,3.7601333555044705,-17.325740433821284,48.29798417,-123.5314406,RACE ROCKS,3.180423986002666,0.1444167047739029
739,713,0.223,3.760227530037952,-2.739029127447539,51.18333833,-101.3627967,ROBLIN,0.7894773572833058,0.23848921060562134
739,1155,0.168,3.7341636155797224,16.86001938032433,48.42500333,-71.14250028,JONQUIERE,1.2788655618233948,0.11091440171003342
739,1248,0.253,3.765983515622409,20.941037953738697,47.00944444,-65.465,MIRAMICHI RCS,1.831881423508468,0.11660756170749664
739,1288,0.311,3.7485350227656515,22.70872628876536,46.28916667,-63.11916667,CHARLOTTETOWN A,1.4477318478963552,0.18137432634830475
740,1052,0.159,3.7789790210924012,12.297713586348909,49.75778333,-77.79307222,MATAGAMI,0.8154133051578574,0.16463527083396912
740,1171,0.414,3.8028294572212555,17.56106413236668,48.26027778,-70.11444444,POINTE CLAVEAU,3.9507016412803093,0.08847685158252716
741,387,0.3865,3.8237917476644463,-17.15786695651581,48.413188469999994,-123.32489015000002,VICTORIA GONZALES HTS,2.015647938246179,0.16189683973789215
741,532,0.523,3.851137098460191,-10.742119354071132,50.18333333,-113.88333329999999,STAVELY AAFC,1.7027534713787125,0.2593304216861725
741,1133,0.23600000000000002,3.838216713691122,15.845765888702402,48.84166667,-72.54694444,NORMANDIN,1.3390035986575113,0.14881058037281036
742,385,0.2,3.866471761135751,-17.223584352495884,48.43197222,-123.43933329999999,ESQUIMALT HARBOUR,1.1332545269200012,0.14900679886341095
742,387,0.057,3.8607786888483604,-17.130742360455955,48.457,-123.3046111,VICTORIA UNIVERSITY CS,0.24357482075641743,0.19758138060569763
742,630,0.32799999999999996,3.8673502491107055,-6.388839086316044,50.95,-107.15,LUCKY LAKE,0.7407453704505292,0.3738595247268677
742,697,0.249,3.884990310819582,-3.4222113413113346,51.26472222,-102.4616667,YORKTON,0.6585471716156789,0.3192390501499176
743,378,0.493,3.9204327866692434,-17.544331235963643,48.37669444,-123.92102779999999,SHERINGHAM POINT,2.840017828458328,0.14656470715999603
744,562,0.237,3.9532495945256017,-9.393013264990834,50.55529722,-111.84889720000001,BROOKS,0.5906623783274575,0.33877596259117126
745,639,0.273,4.004087085054908,-6.011307272124186,51.13333333,-106.58333329999999,ELBOW CS,0.5950771011555355,0.3873405456542969
746,387,0.188,4.066799462131285,-17.1441395448798,48.64722222,-123.4258333,VICTORIA INTL A,0.7235408547750136,0.21938066184520721
746,447,0.22,4.074265803373255,-14.502793382081894,49.4625,-119.6022222,PENTICTON A,1.6141041600459989,0.1150786280632019
746,597,0.27399999999999997,4.04232783420433,-7.864501653195341,50.90946389,-109.50139170000001,LEADER AIRPORT,0.6365047045061458,0.3634565472602844
747,394,0.48700000000000004,4.113823072401467,-16.861117364424064,48.7839075,-123.04474499999999,SATURNA ISLAND CS,1.8288466852727194,0.2248304933309555
748,870,0.163,4.133851210697307,4.231720571439928,51.44916694,-90.21777972,PICKLE LAKE (AUT),1.6572423145144928,0.0830434039235115
749,405,0.23800000000000002,4.198153065137018,-16.35607410314257,49.02527778,-122.36,ABBOTSFORD A,1.3137871466874047,0.15295211970806122
749,447,0.14800000000000002,4.178770978746291,-14.503269431170576,49.56255556,-119.64869440000001,SUMMERLAND CS,1.0411789682998227,0.1200162023305893
749,658,0.22899999999999998,4.189983408021939,-5.148035096424749,51.41666667,-105.25,LAST MOUNTAIN CS,0.5035612853307652,0.38396063446998596
749,1154,0.10300000000000001,4.201828370034858,16.777582007442813,48.89416667,-71.03166667,ONATCHIWAY,0.7969883475921002,0.1091160923242569
749,1268,0.457,4.204993378987614,21.84238071776973,47.05805556,-63.99861111,NORTH CAPE,1.8178711636673415,0.2122543752193451
750,434,0.158,4.247462226064249,-15.068282827752846,49.465,-120.51,PRINCETON CS,1.0970175248151919,0.12160377949476242
750,1302,0.442,4.229876092164572,23.347619828387366,46.46,-61.98833333,EAST POINT (AUT),1.6445819172774057,0.22691871225833893
751,399,0.1,4.280014154965024,-16.622549060683824,49.01805556,-122.7838889,WHITE ROCK CAMPBELL SCIENTIFIC,0.37186610393617314,0.2270476222038269
751,415,0.185,4.2821013480871,-15.91401292376641,49.24305556,-121.7602778,AGASSIZ RCS,1.1519787371666736,0.13559098541736603
753,419,0.248,4.348601221374459,-15.712183126678072,49.36833333,-121.49805559999999,HOPE A,1.7611390586632325,0.11889445036649704
753,1098,0.139,4.347111774083126,14.333709478181978,49.77194444,-74.52805556,CHIBOUGAMAU CHAPAIS A,0.7437931082031264,0.15778517723083496
754,633,0.223,4.388063674895859,-6.257252146675371,51.48333333,-107.05,OUTLOOK PFRA,0.4966756491124225,0.3790840804576874
754,1193,0.304,4.416690511142627,18.502887617254068,48.51388889,-68.46833333,POINTE-AU-PERE (INRS),2.7999976960317583,0.09166835993528366
755,392,0.282,4.473602251907387,-16.916836294395274,49.10589583,-123.30336750000001,SANDHEADS CS,1.038435968603468,0.22928357124328613
755,402,0.091,4.440478981070972,-16.50292136810328,49.20832333,-122.6900211,PITT MEADOWS CS,0.4088590527825605,0.1879192739725113
755,657,0.23800000000000002,4.44853377457857,-5.214215428951586,51.66666667,-105.4,WATROUS EAST,0.5268086971394227,0.3814411759376526
755,674,0.223,4.473410525238996,-4.462202619695296,51.76666667,-104.2,WYNYARD,0.5059222490831778,0.37215566635131836
755,1227,0.231,4.448041820202402,20.021582577436224,47.99,-66.33416667,CHARLO AUTO,2.078324945349243,0.09384304285049438
756,453,0.15,4.5077420619667485,-14.222879053496781,49.95722222,-119.37777779999999,KELOWNA,1.0069640934523325,0.12577109038829803
757,395,0.27699999999999997,4.531988130147841,-16.81361800373649,49.19472222,-123.1838889,VANCOUVER INTL A,1.0853520180484455,0.21548284590244293
757,477,0.079,4.535698860288343,-13.171617048682501,50.269425,-117.81709440000002,NAKUSP CS,0.5868872532092329,0.11365170776844025
757,621,0.265,4.5431919325944135,-6.78194231884097,51.56666667,-107.91666670000001,ROSETOWN EAST,0.5929765006170161,0.37732183933258057
757,1332,0.316,4.543164880667941,24.68839616601449,46.16138889,-60.04805556,SYDNEY A,0.9965920860945521,0.26771530508995056
758,603,0.32299999999999995,4.608767404503917,-7.569468433826363,51.51527778,-109.18055559999999,KINDERSLEY A,0.7626678100431337,0.3575778901576996
758,1195,0.311,4.566745837694851,18.630981416578855,48.60888889,-68.2075,MONT JOLI A,2.7072857266785175,0.09699064493179321
758,1314,0.733,4.588363646646774,23.89393865227279,46.55,-61.05,GRAND ETANG,1.7260290889517906,0.3585579991340637
759,1207,0.133,4.623521214546431,19.1592846264715,48.47194444,-67.43472222,AMQUI,1.1359286071697858,0.09885625541210175
760,386,0.379,4.680274358543418,-17.196777885610086,49.20866528,-123.8105558,ENTRANCE ISLAND,1.738706565048464,0.1840417981147766
760,394,0.331,4.677418954367656,-16.81915663615698,49.33036111,-123.26472220000001,POINT ATKINSON,1.4924249496519741,0.18725742399692535
760,396,0.039,4.677969762216227,-16.76956278138926,49.34704167,-123.19330829999998,WEST VANCOUVER AUT,0.1705383416920519,0.19308392703533173
760,716,0.157,4.685965385398002,-2.6065900190944675,52.11497222,-101.2329167,SWAN RIVER RCS,0.927404045759951,0.14293356239795685
760,1250,0.40299999999999997,4.662718972537827,21.02561753646174,47.80222222,-64.83333333,BAS CARAQUET,1.9478241996263455,0.17468629777431488
761,1241,0.2,4.7250855134720275,20.634842638445125,48.01194444,-65.33166667,NEW CARLISLE 1,1.3153168297637396,0.12838171422481537
762,531,0.32799999999999996,4.769292484492782,-10.758454639357664,51.07611667,-114.22224720000001,COP UPPER,1.2105100210019704,0.2287752330303192
762,535,0.319,4.785993628558092,-10.619828647503724,51.1225,-114.01333329999999,CALGARY INTL A,1.1764623938555832,0.22893710434436798
764,395,0.52,4.833554553323542,-16.788834370638504,49.48778028,-123.2994528,HOWE SOUND - PAM ROCKS,2.740857386521211,0.16018448770046234
764,774,0.21,4.859738570519439,-0.013455308300481918,52.35973667,-97.02195333,BERENS RIVER CS,1.7266716957188994,0.10268643498420715
764,1005,0.196,4.867997166536083,10.202260909953266,51.29111111,-80.60777778,MOOSONEE,1.240501838203029,0.13340196013450623
765,382,0.361,4.89026139347413,-17.3647279462562,49.35027778,-124.16027779999999,BALLENAS ISLAND,2.58182745310543,0.11805476993322372
765,520,0.14400000000000002,4.895300185968008,-11.27565501371888,51.08333333,-115.06666670000001,BOW VALLEY,0.4946146404446862,0.24580973386764526
766,555,0.159,4.927599397797105,-9.731734597129488,51.44527778,-112.67666670000001,DRUMHELLER EAST,0.37910229559299047,0.35411494970321655
766,1252,0.354,4.9424908491171085,21.153074897500563,48.00888944,-64.49416889,MISCOU ISLAND (AUT),1.6297213805502142,0.18339751660823822
767,358,0.281,5.004338801292544,-18.44943354802297,49.08222222,-125.7725,TOFINO A,1.0841555254986381,0.2188357561826706
768,371,0.08,5.029547406576533,-17.84743393457936,49.31658333,-124.92683329999998,PORT ALBERNI (AUT),0.4196223376481809,0.16096629202365875
768,640,0.321,5.04256241367178,-5.954438330658734,52.17083333,-106.7,SASKATOON INTL A,0.7582933876553126,0.35741379857063293
768,900,0.139,5.020598546046365,5.562707450942914,52.19611111,-87.93611111,LANSDOWNE HOUSE (AUT),1.2755697649867301,0.09200557321310043
769,379,0.475,5.079146689740198,-17.48698992426041,49.48661111,-124.43494440000002,SISTERS ISLAND,2.855006417944759,0.14047209918498993
769,399,0.3,5.083444099503577,-16.60690557305561,49.78320833,-123.16119440000001,SQUAMISH AIRPORT,1.1732148506291369,0.2158973217010498
769,514,0.099,5.073142772373729,-11.547420269197556,51.19335833,-115.5522361,BANFF CS,0.35594960673423526,0.2348281890153885
769,1191,0.305,5.058509723741355,18.448032282431036,49.13333333,-68.2,BAIE-COMEAU A,2.1135137694787622,0.12184236198663712
771,424,0.278,5.17993276318436,-15.499915037348574,50.22444444,-121.58194440000001,LYTTON A,1.300043852218908,0.18054702877998352
771,1296,0.354,5.165444231688623,23.0678576687051,47.42527778,-61.77472222,ILES DE LA MADELEINE,0.6770693438745393,0.44144201278686523
772,459,0.125,5.207796525122266,-13.958871018330044,50.703,-119.2906778,SALMON ARM CS,0.963548777005197,0.1095317080616951
773,476,0.221,5.269597433612625,-13.21091076569129,50.96666667,-118.18333329999999,REVELSTOKE A,1.1588435722910273,0.16101673245429993
774,549,0.34299999999999997,5.30989534393918,-9.98887389338274,51.76752278,-113.20558190000001,THREE HILLS,0.8715061894302022,0.33229759335517883
776,375,0.303,5.398795792297833,-17.691787034811796,49.71666667,-124.9,COMOX A,1.2976634939381184,0.19714424014091492
776,574,0.247,5.398588605657063,-8.8618198452816,52.07416667,-111.44944440000002,CORONATION CLIMATE,0.5738764208707547,0.36339765787124634
776,1213,0.364,5.405598077139555,19.402389265309935,49.10916667,-66.65444444,CAP-CHAT,2.1143254631892887,0.14535604417324066
776,1251,0.389,5.366081946486445,21.097426835756565,48.41944444,-64.31694444,CAP-D'ESPOIR,1.6514955073101145,0.19887296855449677
777,381,0.21899999999999997,5.420250279987988,-17.40771589134421,49.83416667,-124.50027779999999,POWELL RIVER A,0.8408776359571405,0.21989475190639496
777,443,0.23199999999999998,5.418355142112611,-14.664387962283548,50.7025,-120.44861110000001,KAMLOOPS A,1.3636202560622914,0.14364750683307648
777,611,0.183,5.410328566512973,-7.227467436188458,52.35974,-108.83472330000001,SCOTT CDA,0.4029359415675164,0.3834587335586548
777,702,0.16699999999999998,5.42698765633609,-3.2247601921992657,52.81666667,-102.3166667,HUDSON BAY(AUT),1.158719819570276,0.12168627232313156
777,1201,0.387,5.422683544978833,18.88228840819151,49.31666667,-67.38111111,POINTE-DES-MONTS,2.8488176503015015,0.11469642072916031
779,529,0.24100000000000002,5.517421654690141,-10.882923913536082,51.77805556,-114.6825,SUNDRE A,0.8514071139986658,0.23899197578430176
780,670,0.19899999999999998,5.541946668719024,-4.606202104116121,52.81666667,-104.6,MELFORT,0.6372304953615074,0.26366961002349854
782,1246,0.22399999999999998,5.649388127428878,20.855594817345434,48.77527778,-64.47972222,GASPE A,1.0299590975881778,0.18362490832805634
785,541,0.223,5.804792691602261,-10.317703558344848,52.18222222,-113.89444440000001,RED DEER REGIONAL A,0.7190537798047747,0.261846661567688
785,621,0.24,5.761985990114917,-6.8094612132902,52.76916667,-108.24361110000001,NORTH BATTLEFORD,0.5733460643282803,0.3534255623817444
787,1230,0.457,5.868297986258983,20.15536491863967,49.25083333,-65.32472222,CAP-MADELEINE,2.235639592235151,0.1725909262895584
790,657,0.228,6.005225677793788,-5.20952598257508,53.21444444,-105.67305559999998,PRINCE ALBERT A,0.8068574075246061,0.23858416080474854
791,545,0.18600000000000003,6.047071002088248,-10.17697657634161,52.44889056,-113.75583470000001,LACOMBE CDA 2,0.5961276649749777,0.26343727111816406
792,582,0.217,6.101757326046463,-8.510033726362712,52.82944611,-111.0955575,WAINWRIGHT CFB AIRFIELD 21,0.518125542806885,0.3536130487918854
792,1330,0.608,6.079406950452909,24.598249512028683,47.57388889,-59.15472222,PORT AUX BASQUES,1.084419201421549,0.47338002920150757
794,430,0.09699999999999999,6.191028649156655,-15.238699301897416,51.26638889,-121.68472220000001,CLINTON A,0.5607613192381967,0.14604854583740234
794,529,0.129,6.175998763409877,-10.874592927333422,52.42139056,-114.91222309999999,ROCKY MTN HOUSE (AUT),0.6289997920950117,0.17315807938575745
796,343,0.71,6.248778810188268,-19.10974178384189,50.0,-127.41666670000001,SPRING ISLAND,2.6440923794507434,0.22671762108802795
797,632,0.172,6.295173195560265,-6.3103094044424735,53.36666667,-107.55,SPIRITWOOD WEST,0.8062748028026739,0.18011459708213806
798,806,0.172,6.378241100142728,1.3922661287442633,53.85722222,-94.65361111,ISLAND LAKE A,1.7253501800019495,0.08416949957609177
800,598,0.26,6.46704523008424,-7.8170025244777985,53.30916667,-110.0725,LLOYDMINSTER,0.6514676893385548,0.3369643986225128
800,763,0.11800000000000001,6.4610481802002715,-0.49984831390568507,53.95833333,-97.84416667,NORWAY HOUSE,0.9584019200923617,0.10395320504903793
800,1207,0.136,6.435424390605278,19.137592167078992,50.1625,-66.43388889,POINTE NOIRE CS,0.5904021688021162,0.1944887638092041
801,870,0.198,6.510376338939495,4.213537302925556,53.81777778,-89.89694444,BIG TROUT LAKE A,1.584585055008913,0.10550017654895782
802,560,0.198,6.516775361034116,-9.491789932268404,53.05,-112.81666670000001,CAMROSE,0.5882825996657427,0.2841729521751404
802,720,0.25,6.535111983149067,-2.420747743804285,53.97138889,-101.09111109999999,THE PAS A,1.210702805494185,0.17434360086917877
802,1209,0.36,6.5325037176877245,19.21483378047518,50.22333333,-66.26555556,SEPT-ILES A,1.64981948088304,0.18423393368721008
803,468,0.191,6.576147475295561,-13.555366981630291,52.129,-119.2899167,BLUE RIVER CS,0.9478139930447568,0.17014288902282715
803,588,0.213,6.585709845611426,-8.260379560551643,53.35,-110.83333329999999,VERMILION A,0.5387973068376558,0.3337780237197876
803,1351,0.596,6.5974818848218275,25.503337381900696,47.61666667,-57.61666667,BURGEO NL,1.2196831435795017,0.4125748872756958
806,653,0.147,6.729576085341241,-5.362373900028919,53.91666667,-106.06666670000001,WASKESIU LAKE,1.2834527953414772,0.09670323133468628
806,1389,0.544,6.71476506251557,27.179790829505052,46.91666667,-55.38333333,ST LAWRENCE,0.9350347612972569,0.4912184774875641
809,349,0.278,6.867564660433124,-18.82276917077382,50.68055556,-127.36666670000001,PORT HARDY A,1.2125187420889387,0.19357973337173462
809,551,0.253,6.865799578478264,-9.887871635043584,53.31,-113.57944440000001,EDMONTON INTL A,0.7957616421776893,0.2684361934661865
810,572,0.23600000000000002,6.878005261863822,-8.976850466754485,53.50527861,-112.09777890000001,VEGREVILLE,0.6708070725763243,0.29704204201698303
813,1236,0.433,7.044912937593031,20.436535753538802,50.22083333,-64.20722222,ILE AUX PERROQUETS,2.140469091275596,0.17079788446426392
814,1236,0.251,7.086267298013481,20.40473616969875,50.27138889,-64.22638889,LONGUE-POINTE-DE-MINGAN,1.2407800044114885,0.17079788446426392
815,432,0.19699999999999998,7.133638888131437,-15.169553726359851,52.18333333,-122.05444440000001,WILLIAMS LAKE A,1.3602503318087147,0.12227873504161835
815,490,0.067,7.132850238554062,-12.592642888786552,52.92638889,-118.02972220000001,JASPER WARDEN,0.2180313839443516,0.2594533860683441
815,553,0.20199999999999999,7.114992147794185,-9.794982561591828,53.57305778,-113.51666940000001,EDMONTON BLATCHFORD,0.6172901313660858,0.27629026770591736
815,1328,0.41700000000000004,7.124532675029857,24.51333158526017,48.54138889,-58.55,STEPHENVILLE A,0.9635013825738228,0.3654157519340515
816,562,0.09300000000000001,7.142631637147242,-9.392843562890613,53.68277778,-112.86805559999999,ELK ISLAND NAT PARK,0.28133378292671046,0.2791030704975128
816,622,0.231,7.135256531694517,-6.770335532255225,54.13333333,-108.51666670000002,MEADOW LAKE,1.2056164983015498,0.16177311539649963
817,554,0.245,7.200238602850177,-9.745862754574896,53.66666667,-113.46666670000002,EDMONTON NAMAO A,0.7481714939665227,0.27648302912712097
818,713,0.146,7.265521132500885,-2.727317658915374,54.68333333,-101.6833333,FLIN FLON,1.399860586833902,0.08805856853723526
818,1244,0.298,7.255328756806281,20.762506711128115,50.28194444,-63.61138889,HAVRE ST. PIERRE,1.4038145839625795,0.179229736328125
823,404,0.12300000000000001,7.486040828213594,-16.408921290076986,52.11444444,-124.13555559999999,PUNTZI MOUNTAIN (AUT),0.43562354799525926,0.238395094871521
824,514,0.218,7.522540248620198,-11.511341693922931,53.57888889,-116.465,EDSON,1.265937666325661,0.14539441466331482
824,1403,0.48200000000000004,7.51460038982457,27.81527856645345,47.29388889,-53.99333333,ARGENTIA (AUT),0.8095514570698186,0.5026968121528625
825,1032,0.242,7.542721410153253,11.401670218484146,53.62527778,-77.70416667,LA GRANDE RIVIERE A,1.2129017592698477,0.16845864057540894
826,599,0.215,7.579602205498168,-7.751482276333977,54.41666667,-110.28333329999998,COLD LAKE A,0.9981557504491054,0.1818627268075943
827,1268,0.307,7.6542643015069505,21.85600961365729,50.19000111,-61.81083361,NATASHQUAN A,0.9609578144412307,0.269735187292099
827,1333,0.166,7.665857832939482,24.70211563681722,48.93333333,-57.91666667,CORNER BROOK,0.5483974101984488,0.25557374954223633
833,667,0.159,7.904538324729805,-4.758065253311719,55.15138889,-105.26694440000001,LA RONGE A,1.5209246756247699,0.08826590329408646
834,526,0.16399999999999998,7.972963239537783,-10.980790802047476,54.14388889,-115.78666670000001,WHITECOURT A,0.9523876206807923,0.14538970589637756
835,432,0.149,8.020698385001833,-15.164287207634962,53.02611111,-122.5102778,QUESNEL,1.2852611219357613,0.0978810116648674
835,925,0.145,7.980106995273844,6.671660120088416,54.98333333,-85.43333333,PEAWANUCK (AUT),0.9158049447012427,0.13368065655231476
837,1337,0.282,8.070483437802531,24.875225889222307,49.20916667,-57.39444444,DEER LAKE A,0.6824331051973479,0.34889325499534607
838,578,0.204,8.109405078695744,-8.687576342126368,54.76888889,-112.0236111,LAC LA BICHE CLIMATE,1.2423232577621752,0.13864336907863617
840,1416,0.45899999999999996,8.22406999626322,28.3736987013005,47.61861111,-52.7525,ST. JOHN'S INTL A,0.8282374397701475,0.46790897846221924
841,374,0.265,8.274004435315417,-17.733708226324985,52.3875,-126.59583329999998,BELLA COOLA A,0.5455122528263147,0.4101520776748657
841,1357,0.115,8.27658893315548,25.76313143670091,48.96666667,-56.06666667,BADGER (AUT),0.3122751117568167,0.310930997133255
842,763,0.145,8.307440636147337,-0.48986586202626836,55.80472222,-97.8625,THOMPSON A,1.3472232156635924,0.0908723995089531
842,1084,0.17,8.312570242602417,13.684976510224804,53.75472222,-73.67527778,LA GRANDE 4 A,0.89301165543301,0.16072940826416016
842,1124,0.307,8.299960359573916,15.44560701182247,53.2,-70.9,NITCHEQUON,1.995288717547692,0.12990808486938477
852,1377,0.424,8.7386436080759,26.64221291337854,48.93694444,-54.56805556,GANDER INTL A,1.1498043935361029,0.3113475441932678
853,629,0.21600000000000003,8.815509382302768,-6.460069106635214,55.84055778,-108.4205581,BUFFALO NARROWS (AUT),1.624761331073505,0.11224518716335297
855,436,0.21100000000000002,8.865117140250923,-14.980275179418216,53.88416667,-122.6775,PRINCE GEORGE,1.8739121702735415,0.09506852924823761
855,803,0.251,8.876679921987252,1.2833498653285929,56.35777778,-94.71083333,GILLAM A,1.4612686622147422,0.14502644538879395
855,1178,0.20199999999999999,8.892514396232245,17.839988896406474,52.92277778,-66.86472222,WABUSH A,1.4864524485608919,0.11473710834980011
856,313,1.111,8.924111877737522,-20.434382001474788,51.93583333,-131.0158333,CAPE ST JAMES,3.124836777530114,0.300185889005661
856,1323,0.591,8.917579732475861,24.275195660682837,50.23638889,-57.58111111,DANIELS HARBOUR,1.2761800615717263,0.3910020887851715
857,545,0.317,8.953923212545519,-10.136018786567163,55.29305556,-114.77722220000001,SLAVE LAKE,1.7799013323923925,0.1503719687461853
857,695,0.083,8.975723983482212,-3.5215659822540544,56.33333333,-103.2833333,SOUTHEND,0.6412959925075197,0.10927557945251465
858,1398,0.7,8.995479641524717,27.61497888610964,48.66722222,-53.11416667,BONAVISTA,1.4939643956028887,0.39560461044311523
861,1022,0.313,9.13979917784757,10.955175450483926,55.28194444,-77.76527778,KUUJJUARAPIK A,1.0390418272727415,0.25434011220932007
863,1351,0.353,9.231967574559613,25.520743079933737,49.91666667,-55.66666667,LA SCIE,1.1499585833266637,0.25917676091194153
865,1365,0.609,9.307926075626447,26.1300268126886,49.68333333,-54.8,TWILLINGATE (AUT),1.5555321931136732,0.3305535614490509
867,493,0.284,9.437886557981983,-12.45984198960441,55.18,-118.88472220000001,GRANDE PRAIRIE A,1.1104660377225202,0.21593180298805237
867,723,0.168,9.42309185147768,-2.2572800940771485,56.86388889,-101.07611109999999,LYNN LAKE,1.1097817111626924,0.12781307101249695
877,596,0.16,9.875099027183095,-7.879752848600816,56.65333333,-111.2233333,FORT MCMURRAY A,1.2473686851225754,0.10830006003379822
880,399,0.055,9.993046102170732,-16.637215800815376,54.38316667,-125.95866670000001,BURNS LAKE DECKER LAKE,0.4677158106990832,0.09928512573242188
881,668,0.139,10.018220835115724,-4.7207232354742645,57.25638889,-105.6175,KEY LAKE,0.6837056549186838,0.17165212333202362
882,1315,0.5579999999999999,10.09625351648879,23.91485136457841,51.44194444,-57.18611111,LOURDES DE BLANC SABLON A,1.5517802108970216,0.30360403656959534
883,1207,0.212,10.125734161991552,19.12731413330217,53.56194444,-64.10638889,CHURCHILL FALLS A,1.55312958262185,0.11524755507707596
885,517,0.2,10.227451806042815,-11.38184000759265,56.22722222,-117.44833329999999,PEACE RIVER A,0.8852031270007225,0.19076144695281982
887,315,0.531,10.323772689221395,-20.314826540757643,53.25416667,-131.8138889,SANDSPIT,1.0434136846112907,0.42967644333839417
887,441,0.109,10.289016576701737,-14.764541630471195,55.29944444,-123.13333329999999,MACKENZIE,0.8827677916436819,0.10425180196762085
887,594,0.631,10.290254007494347,-7.9895762516515,57.04111111,-111.5588889,MILDRED LAKE,4.397206376246218,0.12115910649299622
889,462,0.209,10.38206263167452,-13.816321842588273,55.68722222,-121.62666670000002,CHETWYND A,1.5459870784764433,0.11414160579442978
895,367,0.275,10.64777819559991,-18.038647503883904,54.46861111,-128.5783333,TERRACE A,0.6979273093198259,0.33267951011657715
895,387,0.165,10.666020246224942,-17.140618041173113,54.82527778,-127.1827778,SMITHERS,1.0989966329767304,0.12676259875297546
895,1162,0.315,10.64635467799349,17.15967429927932,54.8,-66.8,SCHEFFERVILLE,1.1828666278532562,0.22484245896339417
897,477,0.264,10.754075326788575,-13.16379533089506,56.23833333,-120.74027779999999,FORT ST. JOHN A,1.1413536994875837,0.19529324769973755
898,342,0.516,10.795326265833655,-19.128600423923935,54.17223389,-130.36085,HOLLAND ROCK,0.9572289971510228,0.45513203740119934
899,1255,0.302,10.842919556161506,21.254575182211557,53.31666667,-60.41666667,GOOSE A,1.9645067674194971,0.12979470193386078
900,694,0.18100000000000002,10.882796058295737,-3.5747623694192856,58.22916667,-103.6780556,COLLINS BAY SK,1.3700371746255888,0.11154491454362869
901,342,0.335,10.919285178335954,-19.126136662526037,54.28611111,-130.4447222,PRINCE RUPERT,0.6073187519822661,0.4657272696495056
902,340,0.631,10.967979467992702,-19.21085652689934,54.295919999999995,-130.609,LUCY ISLAND LIGHTSTATION,1.1342451786382242,0.46970584988594055
909,810,0.37200000000000005,11.268457599121216,1.5517889441548407,58.73916667,-94.06638889,CHURCHILL A,0.8995160965790044,0.3491705060005188
909,1325,0.7090000000000001,11.27986689754487,24.383441139208454,52.25,-55.6,BATTLE HARBOUR LOR,2.160992807546089,0.27701064944267273
924,607,0.17,11.94254780828768,-7.427261310792818,58.76722222,-111.1172222,FORT CHIPEWYAN,0.7432218665119614,0.193122997879982
926,670,0.125,12.012536269432509,-4.60835687106438,59.25027778,-105.8413889,STONY RAPIDS,0.7611608125997861,0.13865551352500916
928,1292,0.517,12.101795426508016,22.892900269297673,53.6825,-57.04194444,CARTWRIGHT A,2.0294216885373157,0.2150907814502716
930,1000,0.331,12.19060493760752,9.99096232096503,58.47194444,-78.07694444,INUKJUAK A,0.8376700964608208,0.3336249589920044
937,535,0.13699999999999998,12.49905047634905,-10.59401058291503,58.62166667,-117.1647222,HIGH LEVEL,0.7591789011895012,0.15236316621303558
937,641,0.11699999999999999,12.505028437108782,-5.9288253650099705,59.56666667,-108.48333329999998,URANIUM CITY (AUT),0.5141739821147634,0.19212298095226288
954,602,0.151,13.254405188803434,-7.616407162004414,60.02027778,-111.96194440000001,FORT SMITH A,0.8000488603595015,0.15935437381267548
956,1115,0.39799999999999996,13.37070616294306,15.064053083611483,58.08944444,-68.42222222,KUUJJUAQ A,1.031147671926288,0.3258860409259796
960,474,0.139,13.533499339002505,-13.294575311602362,58.83638889,-122.59694440000001,FORT NELSON A,1.0761997747882794,0.10904994606971741
963,731,0.6829999999999999,13.680146074231128,-1.9287538391095849,61.13194444,-100.8838889,ENNADAI LAKE (AUT),1.6549728551782943,0.3484443128108978
981,564,0.18100000000000002,14.46895520151025,-9.32449190230265,60.83972222,-115.78277779999999,HAY RIVER A,0.925338860667849,0.16515104472637177
984,387,0.092,14.589709320165424,-17.15233558751925,58.42416097,-130.02819445,DEASE LAKE A,0.41639720134006186,0.1865449845790863
993,475,0.114,14.997475584227825,-13.24218056297659,60.23333333,-123.46666670000002,FORT LIARD,1.236110101158561,0.07786660641431808
1002,827,0.441,15.383269314540911,2.3130205801707153,62.81055556,-92.11472222,RANKIN INLET A,1.043791195007118,0.35672086477279663
1008,644,0.31,15.66280786056841,-5.760239646527088,62.71138889,-109.16833329999999,FORT RELIANCE (AUT),1.0304228102867896,0.2540093958377838
1013,416,0.16699999999999998,15.88092228038039,-15.851304381969424,60.11638889,-128.8225,WATSON LAKE A,1.7013468389385042,0.08287569135427475
1013,587,0.171,15.89441465403033,-8.283480216051686,62.46305556,-114.44027779999999,YELLOWKNIFE A,0.6886672590184677,0.2096477597951889
1018,511,0.17600000000000002,16.08575343958177,-11.66274810335931,61.76027778,-121.23666670000001,FORT SIMPSON A,1.3917012923387109,0.10677514970302582
1033,375,0.128,16.75783181903663,-17.66313094916276,60.16666667,-132.7333333,TESLIN (AUT),0.9472241055183037,0.11409346759319305
1034,784,0.45899999999999996,16.80136773505555,0.41776576870344745,64.29888889,-96.07777778,BAKER LAKE A,1.0526793733500186,0.36814603209495544
1043,914,0.424,17.2356309048905,6.170777032640615,64.19333333,-83.35944444,CORAL HARBOUR A,0.9250011998775213,0.38701438903808594
1056,357,0.20600000000000002,17.77245824907277,-18.46801649232351,60.70944444,-135.06722219999997,WHITEHORSE A,0.7584653979354851,0.2293163388967514
1060,982,0.38299999999999995,17.945757407728394,9.19841703659083,64.23027778,-76.525,CAPE DORSET A,0.8726204618986043,0.3705756962299347
1070,333,0.159,18.431071766210742,-19.56070522252211,60.77250222,-137.58027890000002,HAINES JUNCTION,0.29095720414455406,0.4613935947418213
1075,1065,0.467,18.620333990762582,12.840917173356567,63.75666667,-68.55611111,IQALUIT A,0.779149820751326,0.5060570240020752
1077,391,0.08800000000000001,18.715569773111653,-16.976191200472176,62.2075,-133.37583329999998,FARO (AUT),0.34811479158073844,0.21343407034873962
1090,325,0.342,19.30709299608938,-19.875540277862292,61.37055556,-139.04,BURWASH A,0.486293080590914,0.593788206577301
1112,485,0.235,20.252036644210936,-12.797166285422927,65.28138889,-126.7986111,NORMAN WELLS A,0.9379096192405176,0.21154873073101044
1117,383,0.135,20.495273245882135,-17.319926783450793,63.61638889,-135.86833330000002,MAYO A,1.2749963877910209,0.08939811587333679
1132,611,0.33799999999999997,21.164691654628026,-7.243250377041287,67.81666667,-115.1438889,KUGLUKTUK A,0.8832782863304596,0.3230893909931183
1142,359,0.111,21.61366280297779,-18.396830830256068,64.06085444,-139.1266667,DAWSON,0.7190445213383316,0.1303379088640213
1146,704,0.379,21.77127851845728,-3.1157058225385725,69.10805556,-105.13722220000001,CAMBRIDGE BAY A,0.9737076528718118,0.3286352753639221
1149,912,0.38,21.89388077907544,6.08211439629,68.77583333,-81.2425,HALL BEACH A,0.9167770047708563,0.34996405243873596
1188,547,0.527,23.628385617874805,-10.089408995697315,69.35777889,-124.0825014,PAULATUK,1.3554428562391205,0.3282713294029236
1199,460,0.16,24.115860491842394,-13.935388265218222,68.30388889,-133.4830556,INUVIK A,1.027908445572743,0.13142231106758118
1207,549,0.408,24.46086288995579,-9.98332818240151,70.16666667,-124.71666670000002,CAPE PARRY A,1.132826986426995,0.3040885925292969
1215,1003,0.39899999999999997,24.854394417513742,10.11149326530005,70.48583333,-68.51694444,CLYDE RIVER A,0.9466604297612654,0.35586249828338623
1240,914,0.3,25.95106807844152,6.194630635701443,72.68944444,-77.96888889,POND INLET A,0.7467375378988885,0.3392007648944855
1269,788,0.451,27.224807001792556,0.6017953027667291,74.71694444,-94.96944444,RESOLUTE BAY A,1.186799361427591,0.32085055112838745
1392,826,0.36,32.659968222895984,2.294890389132624,79.99444444,-85.81194444,EUREKA A,0.8510985968952629,0.35712987184524536
1472,894,0.542,36.222646686411366,5.274983007715006,82.51777778,-62.28055556,ALERT,1.330407714071044,0.3439680337905884
