history_id,station_name,province,lon,lat,elev (m),TwJul2.5 (degC)
42,ESQUIMALT HARBOUR,BC,-123.439,48.432,3,16.6
56,MALAHAT,BC,-123.53,48.5749,366,19
90,SATURNA ISLAND CS,BC,-123.045,48.7839,24,19.7
93,SHERINGHAM POINT,BC,-123.921,48.3767,7,17.6
106,VICTORIA UNIVERSITY CS,BC,-123.305,48.457,60,19.5
110,VICTORIA GONZALES CS,BC,-123.325,48.4133,61,17.6
131,VICTORIA HARTLAND CS,BC,-123.459,48.5338,154,20.1
150,BALLENAS ISLAND,BC,-124.16,49.3503,15,19.5
174,COMOX A,BC,-124.9,49.7167,26,18.3
192,FANNY ISLAND,BC,-125.993,50.4535,5,14.9
228,PORT HARDY A,BC,-127.366,50.6803,22,15.5
242,SISTERS ISLAND,BC,-124.435,49.4866,20,18.6
278,ESTEVAN POINT CS,BC,-126.543,49.3833,6,16.6225
312,PORT ALBERNI (AUT),BC,-124.927,49.3166,76,20
370,HOWE SOUND - PAM ROCKS,BC,-123.299,49.4878,7,20
395,SQUAMISH AIRPORT,BC,-123.161,49.7832,54,19.5
409,CAPE ST JAMES,BC,-131.017,51.9333,92,14.4
432,SANDSPIT A,BC,-131.813,53.2539,6,15.5
459,CATHEDRAL POINT (AUT),BC,-127.471,52.1875,26,17.5
470,GREY ISLET (AUT),BC,-130.698,54.5803,10,15.5
500,PRINCE RUPERT A,BC,-130.445,54.2925,35,15
522,TERRACE A,BC,-128.577,54.4664,217,17.6
575,SMITHERS A,BC,-127.183,54.8247,522,17.1
629,PEMBERTON AIRPORT CS,BC,-122.734,50.3056,204,20.9
638,PUNTZI MOUNTAIN (AUT),BC,-124.136,52.1144,910,15.3
648,TATLAYOKO LAKE RCS,BC,-124.403,51.6746,875,15.8
662,BURNS LAKE DECKER LAKE,BC,-125.959,54.3832,713,16.7
724,PRINCE GEORGE A,BC,-122.679,53.8908,691,17
737,QUESNEL A,BC,-122.51,53.0261,545,17.8
759,WILLIAMS LAKE A,BC,-122.054,52.1831,940,15.7
782,ABBOTSFORD A,BC,-122.36,49.0253,59,20.3
788,AGASSIZ RCS,BC,-121.76,49.2431,19,21.6
940,PITT MEADOWS CS,BC,-122.69,49.2083,5,20.7
1019,WEST VANCOUVER AUT,BC,-123.193,49.347,170,19.8
1036,WHITE ROCK CAMPBELL SCIENTIFIC,BC,-122.784,49.0181,13,19.8
1094,HOPE,BC,-121.483,49.3667,39,20.8
1116,LYTTON,BC,-121.582,50.2244,225,20.2
1157,KELOWNA A,BC,-119.378,49.9561,430,19
1202,OSOYOOS CS,BC,-119.441,49.0283,283,21.1
1217,PENTICTON A,BC,-119.602,49.4631,344,19.4
1235,VERNON CS,BC,-119.194,50.2233,482,19.6
1248,PRINCETON CS,BC,-120.51,49.465,697,18.6
1249,SUMMERLAND CS,BC,-119.649,49.5626,454,19.2
1306,NAKUSP CS,BC,-117.817,50.2694,512,20.9
1320,NELSON CS,BC,-117.305,49.4914,535,20.2
1337,WARFIELD RCS,BC,-117.739,49.1119,567,18.9
1342,CRESTON CAMPBELL SCIENTIFIC,BC,-116.501,49.0817,641,21.3
1355,CRANBROOK A,BC,-115.782,49.6122,940,17.5
1393,SPARWOOD CS,BC,-114.884,49.745,1137,16.5725
1423,BLUE RIVER CS,BC,-119.29,52.129,683,18
1437,CLINTON (AUT),BC,-121.505,51.1447,1057,15.7
1461,KAMLOOPS A,BC,-120.442,50.7022,345,18.9
1541,SALMON ARM CS,BC,-119.291,50.703,351,21.9
1577,REVELSTOKE A,BC,-118.183,50.9611,445,19.3
1596,YOHO PARK,BC,-116.345,51.4429,1602,15.4
1630,FORT ST JOHN A,BC,-120.74,56.2381,695,17.2
1643,MACKENZIE A,BC,-123.138,55.3053,690,16.9
1686,FORT NELSON A,BC,-122.597,58.8364,382,18.2
1769,BURWASH A,YT,-139.05,61.3667,806,14.3
1797,FARO (AUT),YT,-133.376,62.2075,717,15.1
1806,HAINES JUNCTION,YT,-137.58,60.7725,595,14.2
1810,HERSCHEL ISLAND,YT,-138.913,69.5682,1,15.5
1814,IVVAVIK NAT. PARK,YT,-140.15,69.1644,244,15.9
1823,MACMILLAN PASS,YT,-130.037,63.2436,1379,11.6
1826,MARGARET LAKE,YT,-140.847,68.8006,568,15
1829,MAYO A,YT,-135.867,63.6167,504,16
1843,OLD CROW RCS,YT,-139.839,67.5706,251,17.1
1853,ROCK RIVER,YT,-136.218,66.9811,731,14.4
1865,DAWSON,YT,-139.127,64.0609,370,15.7
1881,TESLIN (AUT),YT,-132.733,60.1667,705,14.6
1887,WATSON LAKE A,YT,-128.822,60.1165,687,15.8
1893,WHITEHORSE A,YT,-135.069,60.7095,706,14.6
1912,CAPE PARRY A,NT,-124.717,70.1667,87,11.7
1916,COLVILLE LAKE,NT,-126.123,67.0214,271,17.8
1919,DELINE CS,NT,-123.433,65.2086,213,16.2
1921,DEADMEN VALLEY,NT,-124.468,61.2567,283,17.7
1932,FORT LIARD,NT,-123.467,60.2333,213,19.1
1942,FORT PROVIDENCE,NT,-117.602,61.3169,162,18.7
19511952,FORT SIMPSON COMPOSITE,NT,-121.237,61.7603,169,18.9
1965,HANBURY RIVER,NT,-105.133,63.6,317,17.3
1977,INNER WHALEBACKS,NT,-113.726,61.9203,165,18
1987,LAC LA MARTRE,NT,-117.245,63.1336,271,18
1994,NORMAN WELLS A,NT,-126.8,65.2825,73,17.8
2004,PAULATUK,NT,-124.083,69.3578,6,15.9
2006,PELLY ISLAND,NT,-135.444,69.6325,17,16.2
2015,RAE LAKES,NT,-117.328,64.1117,221,17.9
2031,TUKTOYAKTUK,NT,-133.017,69.4333,5,17.1
2042,YELLOWKNIFE A,NT,-114.44,62.4628,206,17.3
2049,LITTLE CHICAGO,NT,-130.228,67.1792,63,18.485
2052,TROUT LAKE,NT,-121.239,60.4408,498,17
2058,LINDBURG LANDING,NT,-122.851,61.125,183,19.2
2060,TRAIL VALLEY,NT,-133.502,68.7463,85,16.9
2064,BAKER LAKE A,NU,-96.0778,64.2989,19,15.3
2080,KUGLUKTUK A,NU,-115.144,67.8167,23,15.8
2086,CORAL HARBOUR A,NU,-83.3594,64.1933,62,13.4
2099,GJOA HAVEN CLIMATE,NU,-95.8503,68.6356,42,11.2
2117,RANKIN INLET A,NU,-92.1167,62.8167,32,14.6
21632165,CAMBRIDGE BAY COMPOSITE,NU,-105.138,69.1081,31,13.2
2169,CAPE DORSET A,NU,-76.525,64.2303,48,11.1
2173,CAPE DYER A,NU,-61.6167,66.5833,393,9.2
2179,CLYDE A,NU,-68.5167,70.4861,27,10.1
2193,EUREKA A,NU,-85.9333,79.9833,10,8.4
2204,HALL BEACH A,NU,-81.2425,68.7758,9,11.47
2216,IQALUIT A,NU,-68.55,63.75,34,12.5
2252,POND INLET A,NU,-77.9689,72.6894,62,10
2263,RESOLUTE CARS,NU,-94.9694,74.7169,68,8.8
2274,TALOYOAK A,NU,-93.5833,69.55,27,12.085
2286,NANGMAGVIK LAKE,NT,-119.989,74.1389,32,13.7625
2293,HOLMAN CS,NT,-117.8,70.7614,30,13.5
2295,MOULD BAY A,NT,-119.333,76.2333,12,7.8
2297,SACHS HARBOUR CLIMATE,NT,-125.254,71.9925,88,12.7
2301,THOMSEN RIVER,NT,-119.538,73.2308,42,13.8
2303,ABEE AGDM,AB,-112.967,54.2833,664,19.6
2312,ANDREW AGDM,AB,-112.279,53.9169,625,20.3
2325,BODO AGDM,AB,-110.101,52.1242,687,19.8
2329,BRETON PLOTS,AB,-114.441,53.0894,852,20.3
2346,CAMROSE,AB,-112.817,53.05,739,20.2
2358,CONSORT AGDM,AB,-110.713,51.9369,772,19.2
23872388,EDMONTON NAMAO COMPOSITE,AB,-113.467,53.6667,688,19.2
2400,ELK ISLAND NAT PARK,AB,-112.868,53.6828,716,20
2441,HIGHVALE,AB,-114.467,53.45,747,19.7
2443,HOLDEN AGDM,AB,-112.246,53.185,688,19.4
2452,KILLAM AGDM,AB,-111.872,52.8475,675,19.7
2464,LINDBERGH AGDM,AB,-110.579,53.9428,630,19.8
2468,LLOYDMINSTER A,AB,-110.072,53.3092,668,19.5
2487,MUNDARE AGDM,AB,-112.3,53.5667,683,19.4
2498,OLIVER AGDM,AB,-113.35,53.65,665,19.8
2520,ROCKY MTN HOUSE (AUT),AB,-114.912,52.4214,988,18.1675
2530,ST. PAUL AGCM,AB,-111.272,54.0111,649,19.3
2544,SMOKY LAKE AGDM,AB,-112.499,54.2775,680,19
2550,STETTLER AGDM,AB,-112.596,52.3469,795,19
2561,TOMAHAWK AGDM,AB,-114.718,53.4394,814,18.9075
2568,TWO HILLS AGDM,AB,-111.678,53.6253,678,19.3
2573,VERMILION AGDM,AB,-110.882,53.3438,623,20.1
2585,VIOLET GROVE CS,AB,-115.126,53.1436,914,18.7
2595,VEGREVILLE,AB,-112.098,53.5053,639,19.5
2608,EDMONTON STONY PLAIN CS,AB,-114.108,53.5472,766,19.2
2612,ESTHER 1,AB,-110.206,51.6697,707,20.8
2626,WAINWRIGHT CFB AIRFIELD 21,AB,-111.096,52.8294,686,19.4
2693,DRUMHELLER EAST,AB,-112.677,51.4453,678,19.4
2711,HUSSAR AGDM,AB,-112.5,51.1833,971,19
2720,LACOMBE CDA 2,AB,-113.756,52.4489,860,19.9
2721,LEEDALE AGDM,AB,-114.472,52.5531,947,19.4
2736,MORRIN AGDM,AB,-112.675,51.6603,836,19.5
2739,OLDS AGDM,AB,-114.085,51.7586,1046,19
2743,OYEN AGDM,AB,-110.35,51.3833,767,19.8
2751,POLLOCKVILLE AGDM,AB,-111.705,51.1253,750,19.4
2753,PRENTISS,AB,-113.6,52.4333,965,19.3
2757,RED DEER A,AB,-113.893,52.1786,905,18.9
2766,SCHULER AGDM,AB,-110.091,50.3069,800,19.3
2787,THREE HILLS,AB,-113.206,51.7675,857,19.8
2800,SUNDRE A,AB,-114.683,51.7781,1114,18
2815,BARNWELL AGDM,AB,-112.3,49.8,824,20
2826,BLOOD TRIBE AGDM,AB,-113.05,49.5667,980,19.5
2827,BOW ISLAND,AB,-111.45,49.7342,817,20.9
2830,BOW ISLAND IRRIGATION AGDM,AB,-111.383,49.8667,799,20.1
2835,BROCKET AGDM,AB,-113.817,49.6167,1073,18.4
2846,BROOKS,AB,-111.849,50.5553,747,20.2
2863,CARDSTON,AB,-113.286,49.2006,1136,19
2875,CHAMPION AGDM,AB,-113.35,50.2819,1006,19.1
2877,CLARESHOLM,AB,-113.639,50.0036,1009,18.6
2887,COP UPPER,AB,-114.222,51.0761,1235,17.6
2898,ENCHANT AGDM,AB,-112.433,50.1833,801,20.3
2900,FINCASTLE AGDM,AB,-112.033,49.8,833,19.4
2903,FOREMOST AGDM,AB,-111.486,49.4833,881,18.9
2928,IRON SPRINGS AGDM,AB,-112.733,49.9,858,20.1
2938,LETHBRIDGE A,AB,-112.8,49.6303,929,19.1
2943,LETHBRIDGE CDA,AB,-112.767,49.695,910,19.5
2978,PINCHER CREEK (AUT),AB,-113.997,49.5206,1190,17.8
2996,RAYMOND AGDM,AB,-112.683,49.4833,937,19.3
3000,ROSEMARY AGDM,AB,-112.05,50.8333,714,19.8
3002,SEVEN PERSONS AGDM,AB,-110.917,49.9167,766,19.7
3010,STAVELY AAFC,AB,-113.883,50.1833,1364,17.5
3030,VAUXHALL CDA CS,AB,-112.133,50.05,779,20.7
3046,SPRINGBANK A,AB,-114.374,51.1031,1201,17.5
3071,MASINASIN AGDM,AB,-111.652,49.1367,948,18.8
3072,MILK RIVER,AB,-112.05,49.1333,1050,18.2
3078,ONEFOUR CDA,AB,-110.467,49.1167,935,18.8
3095,BANFF CS,AB,-115.552,51.1934,1397,15.4
3106,BOW VALLEY,AB,-115.067,51.0833,1298,17.2
3131,CROWSNEST,AB,-114.482,49.6275,1303,17.5
3154,JASPER WARDEN,AB,-118.03,52.9264,1020,15.5
3188,NORDEGG CS,AB,-116.04,52.492,1332,16.2
3217,WATERTON PARK GATE,AB,-113.809,49.1311,1289,17.4
3253,NAKISKA RIDGETOP,AB,-115.19,50.9425,2543,11.4
3271,ATMORE AGDM,AB,-112.825,54.7817,574,19.7
3277,BARRHEAD CS,AB,-114.448,54.0947,648,19.9
3306,DAPP AGDM,AB,-113.95,54.3167,614,20.5
3351,HENDRICKSON CREEK,AB,-118.447,53.795,1448,14.4
3354,HIGH PRAIRIE AGDM,AB,-116.479,55.3958,602,18.8
3399,MILDRED LAKE,AB,-111.559,57.0411,310,18.9
3421,RICH LAKE AGDM,AB,-111.7,54.5,585,19.775
3489,PRAIRIE RIVER,AB,-111.679,58.6272,212,18.8
3512,BEAVERLODGE RCS,AB,-119.396,55.1967,745,16.7
3556,FAIRVIEW AGDM,AB,-118.439,56.0814,655,17.4
3566,FORT CHIPEWYAN A,AB,-111.117,58.7667,232,19.2
3570,FORT VERMILION,AB,-116.04,58.3823,289,19.9
3584,GRANDE PRAIRIE A,AB,-118.885,55.1797,669,18
3595,HIGH LEVEL A,AB,-117.165,58.6214,338,18.455
3631,MANNING AGDM,AB,-117.451,56.9739,457,19.3
3645,CLEARDALE AGDM,AB,-119.745,56.3144,630,17.5
3651,PEACE RIVER A,AB,-117.447,56.2269,571,18.3
3670,RED EARTH,AB,-115.278,56.552,546,17.8
3690,SPIRIT RIVER AUTO STATION,AB,-119.23,55.6947,1015,16.4
3708,VALLEYVIEW AGDM,AB,-117.199,55.0981,698,18
3738,GARDEN RIVER,AB,-113.866,58.7108,241,20.7
3742,COLD LAKE A,AB,-110.283,54.4167,541,19.4
3766,BROADVIEW,SK,-102.571,50.3681,600,21.1
3808,ESTEVAN A,SK,-102.967,49.2167,580,21.8
3839,INDIAN HEAD CDA,SK,-103.65,50.55,579,22.5
3858,LAST MOUNTAIN CS,SK,-105.25,51.4167,497,22
39378784,REGINA COMPOSITE,SK,-104.667,50.4333,577,21.6
3973,WATROUS EAST,SK,-105.4,51.6667,526,22
39853998,WYNYARD COMPOSITE,SK,-104.2,51.7667,561,20.8
3992,YORKTON A,SK,-102.467,51.2667,498,20.8
4002,WEYBURN,SK,-103.8,49.7,589,22.7
4011,ASSINIBOIA AIRPORT,SK,-105.946,49.7292,726,21
4029,ELBOW CS,SK,-106.583,51.1333,595,21.1
4065,LUCKY LAKE,SK,-107.15,50.95,665,21.5875
4068,MAPLE CREEK,SK,-109.466,49.9025,767,20
4100,SWIFT CURRENT A,SK,-107.683,50.3,817,19.8
4103,SWIFT CURRENT CDA,SK,-107.733,50.2667,825,20.7
4110,LEADER AIRPORT,SK,-109.501,50.9095,676,19.9
4122,CORONACH SPC,SK,-105.483,49.05,756,21.3
4123,CYPRESS HILLS PARK,SK,-109.514,49.6406,1271,17.7
4127,EASTEND CYPRESS (AUT),SK,-108.989,49.4378,1080,18.5
4143,ROCKGLEN (AUT),SK,-105.979,49.1678,917,19.8
4148,VAL MARIE SOUTHEAST,SK,-107.586,49.0583,796,19.8
4184,KINDERSLEY A,SK,-109.183,51.5167,694,19.8
42004202,NORTH BATTLEFORD COMPOSITE,SK,-108.256,52.7719,548,19.8
4210,ROSETOWN EAST,SK,-107.917,51.5667,586,20.8
4218,SCOTT CDA,SK,-108.835,52.3597,660,20.4
4270,MELFORT,SK,-104.6,52.8167,490,21.8
4280,OUTLOOK PFRA,SK,-107.05,51.4833,541,21.3
4285,PRINCE ALBERT A,SK,-105.667,53.2167,428,20.3
4298,SASKATOON KERNEN FARM,SK,-106.55,52.15,510,20.8
4333,BUFFALO NARROWS (AUT),SK,-108.421,55.8406,440,18.9
4341,COLLINS BAY,SK,-103.712,58.19,490,17.5
4358,ISLAND FALLS (AUT),SK,-102.35,55.5333,297,18.8
4365,KEY LAKE A,SK,-105.6,57.25,514,17.8
4389,SOUTHEND,SK,-103.283,56.3333,344,18.8
4392,SPIRITWOOD WEST,SK,-107.55,53.3667,584,21.4
4396,STONY RAPIDS A,SK,-105.833,59.25,245,18.6
4399,WASKESIU LAKE,SK,-106.067,53.9167,569,19.4
4405,MEADOW LAKE,SK,-108.517,54.1333,481,19.9
4406,URANIUM CITY (AUT),SK,-108.483,59.5667,318,18
4434,NIPAWIN,SK,-104,53.3333,372,21.2
4445,HUDSON BAY,SK,-102.317,52.8167,358,21.3
4475,BRANDON A,MB,-99.9519,49.91,409,22.2
4483,CARBERRY CS,MB,-99.3574,49.9058,384,23.9
4542,ROBLIN,MB,-101.363,51.1833,540,22.5
4553,SHOAL LAKE CS,MB,-100.603,50.4549,561,22.6
4581,WASAGAMING,MB,-99.9419,50.655,627,21.3
4586,MELITA,MB,-100.986,49.2813,446,23.2
4610,DEERWOOD RCS,MB,-98.3192,49.3998,341,23.9
4618,EMERSON AUT,MB,-97.2375,49,242,24
4628,GRETNA (AUT),MB,-97.56,49.0308,253,24
4652,MORDEN CDA CS,MB,-98.0839,49.1876,298,24
4674,PILOT MOUND (AUT),MB,-98.9049,49.191,470,23.8
4703,SPRAGUE,MB,-95.5983,49.0236,329,22.9
4742,WINNIPEG THE FORKS,MB,-97.1294,49.8883,230,23.2
4756,CARMAN U OF M CS,MB,-98.0297,49.4981,268,24.6
4770,BERENS RIVER CS,MB,-97.022,52.3597,222,21.6
4785,GEORGE ISLAND (AUT),MB,-97.6164,52.8186,223,21
4786,FISHER BRANCH (AUT),MB,-97.5545,51.0834,253,22.1
4798,GREAT FALLS CLIMATE,MB,-95.9772,50.5222,253,22.1
4811,GRAND RAPIDS (AUT),MB,-99.2678,53.1864,223,20.9
4825,VICTORIA BEACH (AUT),MB,-96.5667,50.7,220,23.6
4828,PINAWA,MB,-96.0647,50.1772,268,22.8
4843,DAUPHIN A,MB,-100.05,51.1,305,22.3
4848,DELTA MARSH CS,MB,-98.3822,50.1826,248,23.7
4928,MCCREARY,MB,-99.53,50.7119,351,22.9
4934,OAKPOINT MARINE,MB,-98.0367,50.4995,250,24
4935,SWAN RIVER RCS,MB,-101.233,52.115,335,21.5
4937,FLIN FLON,MB,-101.683,54.6833,304,19.9
4947,THE PAS A,MB,-101.1,53.9667,270,20.5
4957,CHURCHILL A,MB,-94.0664,58.7392,29,18.2
4970,GILLAM A,MB,-94.7106,56.3575,145,19.6
4976,ISLAND LAKE A,MB,-94.65,53.85,236,20.3
4978,KELSEY DAM CS,MB,-96.5097,56.0375,183,19.5
4988,LYNN LAKE A,MB,-101.076,56.8639,357,18.5
5016,TADOULE LAKE CS,MB,-98.5017,58.7158,262,17.8
5018,THOMPSON A,MB,-97.8625,55.8033,224,19.5
5029,NORWAY HOUSE A,MB,-97.85,53.95,224,20
5040,EAR FALLS (AUT),ON,-93.2214,50.6306,363,21.4
5046,LANSDOWNE HOUSE (AUT),ON,-87.9361,52.1961,253,20.6
5050,PEAWANUCK (AUT),ON,-85.4333,54.9833,53,19.1
5052,PICKLE LAKE (AUT),ON,-90.2178,51.4492,391,20.5
5074,ATIKOKAN (AUT),ON,-91.6281,48.7611,389,22
5100,DRYDEN A (AUT),ON,-92.7442,49.8317,413,21.8
5110,KENORA A,ON,-94.3653,49.7903,410,21.7
5119,ROYAL ISLAND (AUT),ON,-94.7631,49.4686,329,23.2
5123,SIOUX LOOKOUT A,ON,-91.9,50.1167,383,21.3
5138,ARMSTRONG (AUT),ON,-88.9053,50.2936,323,21.1
5148,CAMERON FALLS (AUT),ON,-88.3447,49.1539,233,21.2
5151,CARIBOU ISLAND (AUT),ON,-85.8333,47.3333,187,17.9
5157,GERALDTON A,ON,-86.9306,49.7828,348,20.5
5204,PUKASKWA (AUT),ON,-86.2947,48.5883,208,18.9
52245228,THUNDER BAY COMPOSITE,ON,-89.3272,48.3694,199,21.6
5234,UPSALA (AUT),ON,-90.4667,49.0333,489,21.6
5238,WELCOME ISLAND (AUT),ON,-89.1194,48.3692,211,19.7
5283,SAULT STE MARIE A,ON,-84.5094,46.4833,192,22.1
5292,WAWA (AUT),ON,-84.7833,47.9667,287,19.9
5297,KILLARNEY (AUT),ON,-81.4833,45.9667,196,20.3
5329,SUDBURY A,ON,-80.7978,46.6256,348,21.4
5345,EARLTON AWOS,ON,-79.8489,47.695,243,22.8
5365,KIRKLAND LAKE CS,ON,-80,48.15,324,22
5380,NAGAGAMI (AUT),ON,-84.1637,49.7468,264,21.6
5393,TIMMINS VICTOR POWER A,ON,-81.3767,48.5697,295,21.2
5402,ALGONQUIN PARK EAST GATE,ON,-78.2667,45.5333,397,21.5
5418,NORTH BAY A,ON,-79.4228,46.3636,370,21.4225
5431,GORE BAY A,ON,-82.5667,45.8833,194,22.1
5513,GRENADIER ISLAND,ON,-75.85,44.4167,82,24.8
5520,KEMPTVILLE CS,ON,-75.6333,45,99,24.25
5571,OTTAWA CDA RCS,ON,-75.7167,45.3833,79,23.8
5595,PETAWAWA A,ON,-77.3167,45.95,130,22.8
5661,BEAUSOLEIL,ON,-79.8667,44.85,183,23.9
5685,COLLINGWOOD,ON,-80.2167,44.5,180,23.2
5721,LAGOON CITY,ON,-79.2167,44.5472,221,24.6375
5734,MUSKOKA AWOS,ON,-79.3033,44.9747,282,22.6
5753,PARRY SOUND CCG,ON,-80.0442,45.3442,176,23.1
5774,BARRIE-ORO,ON,-79.55,44.4833,289,22.7
5808,WIARTON A,ON,-81.1072,44.7458,222,22.5
5818,EGBERT CS,ON,-79.7833,44.2333,251,23.7
5851,GODERICH,ON,-81.7167,43.7667,214,23.5
5906,BELLE RIVER,ON,-82.7,42.3,184,26.0475
5922,DELHI CS,ON,-80.55,42.8667,232,24
5945,HARROW CDA AUTO,ON,-82.9,42.0333,191,24.9
6011,SOUTHEAST SHOAL (AUT),ON,-82.4667,41.8333,195,25.1
6025,VINELAND STATION RCS,ON,-79.4,43.1833,79,23.9
6038,WINDSOR A,ON,-82.9556,42.2756,190,24.5
6049,ERIEAU (AUT),ON,-81.9001,42.2501,178,24.5
6051,POINT PELEE CS,ON,-82.5189,41.9486,177,26
6084,ELORA RCS,ON,-80.4167,43.65,376,23.1
6138,MOUNT FOREST (AUT),ON,-80.75,43.9833,415,22.8
6220,BURLINGTON PIERS (AUT),ON,-79.8,43.3,77,22.6
6242,COBOURG (AUT),ON,-78.1667,43.95,78,22.5
6273,HAMILTON A,ON,-79.9342,43.1717,238,23.9
6279,HAMILTON RBG CS,ON,-79.9083,43.2917,102,24.8
6398,POINT PETRE (AUT),ON,-77.15,43.8333,79,23.3
6438,TORONTO CITY,ON,-79.4,43.6667,113,24.6525
6479,TORONTO ISLAND A,ON,-79.395,43.6286,77,23.3
6520,TRENTON A,ON,-77.5333,44.1167,86,23.5
6551,TORONTO BUTTONVILLE A,ON,-79.37,43.8622,198,23.7
6596,PETERBOROUGH A,ON,-78.3667,44.2333,191,23.6
6613,BANCROFT AUTO,ON,-77.8789,45.0714,331,22.6
6620,BEAUPORT,QC,-71.1972,46.8369,10,23.5
6635,DESCHAMBAULT,QC,-71.9717,46.6908,61,23.2
6667,QUEBEC/JEAN LESAGE INTL A,QC,-71.3833,46.8,74,22.8
6710,SHAWINIGAN,QC,-72.7333,46.5633,110,22.9
6714,TROIS-RIVIERES,QC,-72.5161,46.3536,6,23
6731,LAC SAINT-PIERRE,QC,-72.9167,46.1833,16,22.6
6732,STE-FOY (U. LAVAL),QC,-71.2875,46.7803,91,22.4
6733,LEMIEUX,QC,-72.0608,46.3036,97,23.2
6790,FRELIGHSBURG,QC,-72.85,45.0333,224,23.2
6806,VARENNES,QC,-73.3767,45.7231,18,23.7
6826,LENNOXVILLE,QC,-71.8236,45.3689,181,23.2
6835,MCTAVISH,QC,-73.5792,45.5047,73,23.2
6845,MONTREAL/PIERRE ELLIOTT TRUDEAU INTL A,QC,-73.75,45.4667,36,23.3
6857,NICOLET,QC,-72.6572,46.2258,8,23.4
6888,STE-CLOTILDE,QC,-73.6789,45.1672,53,23.5
6911,MONTREAL/ST-HUBERT A,QC,-73.4167,45.5167,27,23.3
6957,SHERBROOKE A,QC,-71.6833,45.4333,241,22.4
6980,BEAUCEVILLE,QC,-70.785,46.205,229,22.1
6991,STE-ANNE-DE-BELLEVUE 1,QC,-73.9292,45.4272,39,23.7
6992,ST-ANICET 1,QC,-74.2894,45.1208,49,24.2
7021,HIGH FALLS,QC,-75.6481,45.8394,195,22.8
7037,MANIWAKI AIRPORT,QC,-75.9919,46.2747,200,22.5
7053,STE AGATHE DES MONTS,QC,-74.2833,46.05,395,21.8
7074,ST-JOVITE,QC,-74.5558,46.0803,239,22.2
7075,BAIE-COMEAU A,QC,-68.2,49.1333,22,18.7
7085,LOURDES DE BLANC SABLON A,QC,-57.1833,51.45,37,16.1
7096,CHARLEVOIX (MRC),QC,-70.6375,47.2842,723,19.595
7098,CHEVERY,QC,-59.6394,50.465,8,16.8
7104,CAP-TOURMENTE,QC,-70.7808,47.0786,6,23.035
7109,FORET MONTMORENCY RCS,QC,-71.1483,47.3228,673,19.2
7120,HAVRE-SAINT-PIERRE A,QC,-63.6,50.2833,38,18.2
7129,ILE AUX PERROQUETS,QC,-64.2072,50.2208,9,15.8
7130,ILE ROUGE,QC,-69.5556,48.0689,6,16.1
7136,LONGUE-POINTE-DE-MINGAN,QC,-64.2264,50.2714,11,17.7
7149,NATASHQUAN A,QC,-61.8167,50.1833,11,17.8
7157,POINTE CLAVEAU,QC,-70.1144,48.2603,4,20.2
7189,LAC EON,QC,-63.2836,51.8672,589,20.6725
7194,POINTE-DES-MONTS,QC,-67.3811,49.3167,6,17.6
7204,BAIE-COMEAU,QC,-68.1458,49.2592,130,19.125
7209,AMQUI,QC,-67.4347,48.4719,166,20.8
7234,CAP-MADELEINE,QC,-65.3247,49.2508,29,19
7248,GASPE A,QC,-64.4781,48.7769,34,20.8
7263,ILES DE LA MADELEINE,QC,-61.7747,47.4253,8,20.4
7265,LA POCATIERE,QC,-70.0319,47.3558,31,22.4
7273,MONT-JOLI A,QC,-68.2167,48.6,52,20.7
7281,NEW CARLISLE 1,QC,-65.3317,48.0119,46,20.7
7294,POINTE-AU-PERE (INRS),QC,-68.4683,48.5139,5,19.4
7299,PORT-MENIER,QC,-64.2933,49.8386,55,18.8
7305,RIVIERE-DU-LOUP,QC,-69.5486,47.8058,147,21.2
7353,CAP-CHAT,QC,-66.6544,49.1092,5,18.6
7357,BAGOTVILLE A,QC,-71,48.3333,159,21
7392,LATERRIERE,QC,-71.1292,48.3072,163,21
7400,NORMANDIN,QC,-72.5469,48.8417,137,21.16
7410,ROBERVAL A,QC,-72.2667,48.5167,179,21.5
7427,LAC BENOIT,QC,-71.1108,51.5325,549,18.4
7430,LA BAIE,QC,-70.9195,48.2981,152,21.6
7452,PARENT,QC,-74.6242,47.9222,445,20.9
7458,LA TUQUE,QC,-72.7875,47.4111,169,21.83
7462,BARRAGE TEMISCAMINGUE,QC,-79.1011,46.7097,181,21.8
7485,ROUYN,QC,-79.0342,48.2458,318,21.1
7489,ROUYN A,QC,-78.8333,48.2167,301,21.6
7503,CHAPAIS,QC,-74.9753,49.8225,381,19.6
7508,CHIBOUGAMAU CHAPAIS A,QC,-74.5333,49.7667,387,19.9
7530,LA GRANDE RIVIERE A,QC,-77.7,53.6333,195,18.2
7534,LA GRANDE IV A,QC,-73.6792,53.7572,306,17.6
7542,MATAGAMI,QC,-77.7931,49.7578,281,20.7
7601,KUUJJUARAPIK A,QC,-77.75,55.2833,12,17.3
7627,KUUJJUAQ A,QC,-68.4167,58.1,40,16.8
7638,SCHEFFERVILLE A,QC,-66.8167,54.8,522,16.3
7652,BAS CARAQUET,NB,-64.8333,47.8022,5,21.9
7656,BATHURST A,NB,-65.7483,47.6292,59,22.1
7671,BUCTOUCHE CDA CS,NB,-64.7681,46.4303,36,22.3
7705,EDMUNDSTON,NB,-68.3245,47.4167,154,21.6
7707,FREDERICTON A,NB,-66.5279,45.8721,21,22
7709,FREDERICTON AQUATIC CENTRE C/S,NB,-66.6547,45.9642,8,23.3
7710,FREDERICTON CDA CS,NB,-66.6089,45.9203,35,22.3
7712,FUNDY PARK (ALMA) CS,NB,-64.95,45.6,43,20.5
7721,GRAND MANAN SAR CS,NB,-66.8019,44.7121,78,20.9
7746,KOUCHIBOUGUAC CS,NB,-65.0167,46.7833,21,22.5
7764,MISCOU ISLAND (AUT),NB,-64.4942,48.0089,4,21.1
7766,MONCTON A,NB,-64.6838,46.1053,71,21.9
7790,POINT ESCUMINAC (AUT),NB,-64.8,47.0667,4,21.1
7792,POINT LEPREAU CS,NB,-66.4492,45.0731,6,18.5
7814,SAINT JOHN A,NB,-65.8856,45.3181,109,19.7
78217859,ST LEONARD COMPOSITE,NB,-67.8319,47.1578,242,21.5
7825,ST STEPHEN (AUT),NB,-67.25,45.2167,26,21.9
7866,AMHERST (AUT),NS,-64.2667,45.85,23,20.6
7887,BEAVER ISLAND (AUT),NS,-62.3333,44.8167,16,17.7
7888,BEDFORD BASIN,NS,-63.6342,44.7078,4,21.2
7901,BRIER ISLAND,NS,-66.3467,44.2858,16,18.6
7911,CARIBOU POINT (AUT),NS,-62.6833,45.7667,2,21.8
7918,CHETICAMP CS,NS,-60.9472,46.645,44,22.305
7932,DEBERT,NS,-63.4667,45.4167,38,21.9
7951,GRAND ETANG,NS,-61.05,46.55,13,22.2
7953,GREENWOOD A,NS,-64.9167,44.9833,28,22.5
7965,HART ISLAND (AUT),NS,-60.9833,45.35,8,19.6
7973,INGONISH BEACH RCS,NS,-60.4064,46.6628,10,22.3
7979,KEJIMKUJIK 1,NS,-65.2031,44.4031,125,22.5
7983,KENTVILLE CDA CS,NS,-64.4833,45.0667,49,22.7
8004,LUNENBURG,NS,-64.2961,44.36,4,19.5
8012,MALAY FALLS,NS,-62.4833,44.9833,40,21.5
8020,MCNABS ISLAND (AUT),NS,-63.5333,44.6,15,19.6
8044,NORTH MOUNTAIN CS,NS,-60.6722,46.8169,439,20.7
8053,PARRSBORO,NS,-64.3461,45.4133,31,20.7
8080,SABLE ISLAND,NS,-60.0094,43.9322,5,19
8087,ST PAUL ISLAND (AUT),NS,-60.1444,47.2328,27,18.8
8122,SYDNEY A,NS,-60.0481,46.1667,62,21.6
8146,WESTERN HEAD,NS,-64.6642,43.99,10,18.8
8164,YARMOUTH A,NS,-66.0886,43.8308,43,19.8
8177,CHARLOTTETOWN A,PE,-63.1286,46.2886,49,21.5
8184,EAST POINT (AUT),PE,-61.9883,46.46,8,21.2
8201,NORTH CAPE,PE,-63.9986,47.0581,8,21.9
8219,MAPLE PLAINS,PE,-63.5756,46.3028,46,21.5
8223,ARGENTIA (AUT),NL,-53.9933,47.2939,19,17.5
8227,BADGER (AUT),NL,-56.0667,48.9667,103,20.8
8237,BONAVISTA,NL,-53.1142,48.6672,26,19.1
82478248,BURGEO COMPOSITE,NL,-57.6167,47.6167,11,17
8255,CAPE RACE (AUT),NL,-53.0764,46.66,27,17
8276,CORNER BROOK,NL,-57.9167,48.9333,152,20.2
8280,DANIELS HARBOUR,NL,-57.5811,50.2364,19,18.1
8283,DEER LAKE A,NL,-57.4,49.2167,22,20.2
8292,ENGLEE (AUT),NL,-56.1128,50.7211,30,17.7
8294,FEROLLE POINT (AUT),NL,-57.1,51.0167,6,16.7
8344,LA SCIE,NL,-55.6667,49.9167,194,19.9
8371,PORT AUX BASQUES,NL,-59.1547,47.5739,40,17.3
8388,ROCKY HARBOUR CS,NL,-57.8778,49.57,68,20.1
8395,ST ANTHONY,NL,-56.1,51.3833,29,18.3
8423,STEPHENVILLE A,NL,-58.55,48.5333,25,19.3
8430,TERRA NOVA NAT PARK CS,NL,-53.9744,48.5569,107,20.6
8454,WINTERLAND,NL,-55.3275,47.1364,29,20
8458,GRATES COVE,NL,-52.9392,48.1719,46,19.6
8460,POOLS ISLAND,NL,-53.5811,49.1122,19,19.3
8465,MARTICOT ISLAND,NL,-54.5853,47.3283,22,16.7
8497,NAIN,NL,-61.6833,56.55,8,15.4
8767,VICTORIA INT'L A,BC,-123.426,48.6472,20,17.9
8769,VANCOUVER INT'L A,BC,-123.182,49.195,4,18.9
8773,LUTSELK'E CS,NT,-110.69,62.4156,179,16.7
8775,CALGARY INT'L A,AB,-114.02,51.1139,1084,17.9
8785,SASKATOON DIEFENBAKER INT'L A,SK,-106.717,52.1667,504,20.8
8786,WINNIPEG RICHARDSON INT'L A,MB,-97.2333,49.9167,239,23.1
8789,OTTAWA MACDONALD-CARTIER INT'L A,ON,-75.6692,45.3225,114,23.1
8795,TORONTO LESTER B. PEARSON INT'L A,ON,-79.6306,43.6772,173,23.7
8799,L'ASSOMPTION,QC,-73.4347,45.8094,21,23.4
8800,L'ETAPE,QC,-71.2289,47.5622,791,18.9
8805,L'ACADIE,QC,-73.3494,45.2939,44,23.5
8807,MONTREAL/MIRABEL INT'L A,QC,-74.0333,45.6667,83,22.9
8810,CAP-D'ESPOIR,QC,-64.3169,48.4194,15,18.8
8816,VAL-D'OR A,QC,-77.7867,48.0564,337,21.2
8821,HALIFAX STANFIELD INT'L A,NS,-63.5,44.88,145,21.3
8832,GANDER INT'L A,NL,-54.5769,48.9464,151,20.1
8842,ST JOHN'S A,NL,-52.7428,47.6222,141,20.2
8845,ST JOHN'S WEST CDA CS,NL,-52.7847,47.5156,114,22.3
8853,MARY'S HARBOUR,NL,-55.8325,52.3036,12,18.3
12694,BRATT'S LAKE,SK,-104.711,50.2003,580,23.1
4.78748E+11,GIMLI COMPOSITE,MB,-97.0163,50.63256667,223,22.6
3.31633E+11,EDSON A COMPOSITE,AB,-116.467,53.5862,927,17.6
2.38124E+11,EDMONTON CITY CENTRE AWOS COMPOSITE,AB,-113.518,53.57276667,671,19.2
84828484,CHURCHILL FALLS COMPOSITE,NL,-64.09695,53.5539,440,17.1
82098212,SUMMERSIDE COMPOSITE,PE,-63.8349,46.44,16,21.4
80958098,SHEARWATER A COMPOSITE,NS,-63.51165,44.63055,25,20.25
79597962,HALIFAX DOCKYARD COMPOSITE,NS,-63.5928,44.6561,27,20.65
76847686,MIRAMICHI RCS COMPOSITE,NB,-65.4664,47.00945,33,21.7
76817682,CHARLO A COMPOSITE,NB,-66.33375,47.98665,41,21.2
75967597,INUKJUAK UA COMPOSITE,QC,-78.0801,58.4693,25,14.9
71777180,SEPT-ILES A COMPOSITE,QC,-66.25835,50.2167,54,17.8
61218792,LONDON CS COMPOSITE,ON,-81.15055,43.0332,278,23.5
53765378,MOOSONEE A COMPOSITE,ON,-80.6128,51.29155,9,21.3
53595362,KAPUSKASING A COMPOSITE,ON,-82.45555,49.41015,222,21.1
50345035,BIG TROUT LAKE COMPOSITE,ON,-89.88115,53.82445,223,19.9
45314534,PORTAGE SOUTHPORT A COMPOSITE,MB,-98.2754,49.90155,271,22.8
43684369,LA RONGE RCS COMPOSITE,SK,-105.2685,55.1482,379,19
38843885,MOOSE JAW A COMPOSITE,SK,-105.5525,50.3325,577,20.8
34753476,WHITECOURT COMPOSITE,AB,-115.7855,54.1418,784,18.4
34473450,SLAVE LAKE A COMPOSITE,AB,-114.783,55.29165,582,18.3
33773378,LAC LA BICHE (AUT) COMPOSITE,AB,-112.0205,54.7678,567,19.2
33363338,FORT MCMURRAY A COMPOSITE,AB,-111.215,56.65055,369,18.9
29552958,MEDICINE HAT A COMPOSITE,AB,-110.719,50.022,716,19.4
23838774,EDMONTON INTERNATIONAL CS COMPOSITE,AB,-113.5945,53.3117,719,19.6
23642365,CORONATION (AUT) COMPOSITE,AB,-111.4495,52.07875,791,18.4
19791982,INUVIK A COMPOSITE,NT,-133.5,68.31045,85,16.8
19681970,HAY RIVER A COMPOSITE,NT,-115.78,60.8393,164,18.1
19591961,FORT SMITH A COMPOSITE,NT,-111.9455,60.0232,204,18.5
19441945,FORT RELIANCE COMPOSITE,NT,-109.1675,62.71405,167,16.7
16851717,DEASE LAKE LWIS COMPOSITE,BC,-130.0285,58.42415,797,14.5