id,station_name,province,lon,lat,elev,SL50 (kPa)
15,CHEMAINUS,BC,-123.742,48.935,75,2.2
78,SAANICHTON CDA,BC,-123.419,48.6217,61,1.4
91,SHAWNIGAN LAKE,BC,-123.626,48.6469,159,2.4
109,VICTORIA GONZALES HTS,BC,-123.325,48.4131,70,1.3
149,ALERT BAY,BC,-126.933,50.5833,59,1.6
159,CAMPBELL RIVER A,BC,-125.273,49.9519,109,1.6
170,CHATHAM POINT,BC,-125.446,50.3332,23,2.1
174,COMOX A,BC,-124.9,49.7167,26,1.6
214,NANAIMO A,BC,-123.87,49.0544,28,2.5
228,PORT HARDY A,BC,-127.366,50.6803,22,0.7
236,QUALICUM R FISH RESEARCH,BC,-124.617,49.3938,8,1.2
267,BULL HARBOUR,BC,-127.95,50.9167,14,0.9
270,CAPE SCOTT,BC,-128.427,50.7822,72,0.4
277,ESTEVAN POINT,BC,-126.543,49.3833,6,0.9
319,TOFINO A,BC,-125.773,49.0822,24,1.1
354,GIBSONS GOWER POINT,BC,-123.541,49.3856,34,0.9
366,MERRY ISLAND LIGHTSTATION,BC,-123.913,49.4675,7,0.5
393,SQUAMISH UPPER,BC,-123.281,49.8958,46,4.6
402,WHISTLER,BC,-122.955,50.1289,658,5.4
409,CAPE ST JAMES,BC,-131.017,51.9333,92,0.8
417,LANGARA,BC,-133.058,54.2552,43,1.3
432,SANDSPIT A,BC,-131.813,53.2539,6,1.3
465,ETHELDA BAY,BC,-129.683,53.05,10,1.8
469,GREEN ISLAND,BC,-130.708,54.5686,12,0.7
489,MCINNES ISLAND,BC,-128.719,52.2617,26,1.1
500,PRINCE RUPERT A,BC,-130.445,54.2925,35,1.7
517,STEWART A,BC,-129.985,55.9361,7,9
522,TERRACE A,BC,-128.577,54.4664,217,5.5
568,NASS CAMP,BC,-129.03,55.2375,195,5.8
575,SMITHERS A,BC,-127.183,54.8247,522,2.7
724,PRINCE GEORGE A,BC,-122.679,53.8908,691,2.9
737,QUESNEL A,BC,-122.51,53.0261,545,3.5
747,SPOKIN LAKE 4E,BC,-121.686,52.1836,1033,3.2
759,WILLIAMS LAKE A,BC,-122.054,52.1831,940,3.2
782,ABBOTSFORD A,BC,-122.36,49.0253,59,1.5
789,AGASSIZ CDA,BC,-121.76,49.2431,15,1.7
1095,HOPE A,BC,-121.498,49.3683,39,3.1
1103,HOPE SLIDE,BC,-121.233,49.2667,685,5
1118,LYTTON,BC,-121.583,50.2333,229,2
1147,HEDLEY,BC,-120.077,49.3572,517,1.4
1157,KELOWNA A,BC,-119.378,49.9561,430,1.4
1217,PENTICTON A,BC,-119.602,49.4631,344,0.8
1220,PRINCETON A,BC,-120.513,49.4678,702,2.6
1237,VERNON NORTH,BC,-119.271,50.3443,538,1.7
1243,WINFIELD,BC,-119.416,50.0366,506,1.4
1278,CASTLEGAR A,BC,-117.632,49.2964,496,2.7
1287,CRESTON,BC,-116.518,49.0971,610,1.9
1318,NEW DENVER,BC,-117.37,49.9958,568,2.7
1343,NELSON RIXEN CREEK,BC,-117.399,49.5123,760,3.8
1355,CRANBROOK A,BC,-115.782,49.6122,940,2
1392,SPARWOOD,BC,-114.883,49.7453,1138,1.9
1418,BLUE RIVER A,BC,-119.29,52.129,690,5.7
1442,CRISS CREEK,BC,-120.728,51.0297,1122,2.1
1443,DARFIELD,BC,-120.183,51.2918,466,1.5
1461,KAMLOOPS A,BC,-120.442,50.7022,345,1.5
1497,100 MILE HOUSE 6NE,BC,-121.217,51.6814,928,2.6
1516,SILVER CREEK,BC,-119.35,50.5452,419,2.2
1542,VIDETTE LAKE SHARPE LAKE,BC,-120.839,51.3265,1083,1.8
1566,GLACIER NP ROGERS PASS,BC,-117.517,51.3017,1330,9.9
1568,GOLDEN A,BC,-116.982,51.2992,785,2.9
1579,REVELSTOKE AIRPORT RD,BC,-118.166,50.9533,450,5.7
1597,GLACIER NP MT FIDELITY,BC,-117.701,51.2382,1890,20.4
1615,CHETWYND A,BC,-121.627,55.6872,610,2.1
1630,FORT ST JOHN A,BC,-120.74,56.2381,695,3.6
1634,GERMANSEN LANDING,BC,-124.701,55.7855,766,3.5
1683,DEASE LAKE,BC,-130.011,58.4283,807,3.1
1686,FORT NELSON A,BC,-122.597,58.8364,382,2.7
1769,BURWASH A,YT,-139.05,61.3667,806,1.5
1780,DAWSON,YT,-139.433,64.05,320,3.3
1782,DAWSON A,YT,-139.128,64.0431,370,2.3
1796,FARO A,YT,-133.373,62.2069,716,1.8
1806,HAINES JUNCTION,YT,-137.58,60.7725,595,2
1829,MAYO A,YT,-135.867,63.6167,504,2.8
1879,TESLIN A,YT,-132.736,60.1741,705,3.2
1887,WATSON LAKE A,YT,-128.822,60.1165,687,3.3
1893,WHITEHORSE A,YT,-135.069,60.7095,706,2
1912,CAPE PARRY A,NT,-124.717,70.1667,87,1.1
1944,FORT RELIANCE,NT,-109.167,62.7167,166,2.8
1947,FORT RESOLUTION A,NT,-113.69,61.1808,160,2.9
1951,FORT SIMPSON A,NT,-121.237,61.7603,169,2.7
1959,FORT SMITH A,NT,-111.962,60.0203,205,2.4
1968,HAY RIVER A,NT,-115.783,60.8397,165,3
1979,INUVIK A,NT,-133.483,68.3042,68,3
1994,NORMAN WELLS A,NT,-126.8,65.2825,73,3.8
2027,TUKTOYAKTUK,NT,-133,69.45,18,1.8
2029,TUKTOYAKTUK A,NT,-133.026,69.4333,4,2.1
2042,YELLOWKNIFE A,NT,-114.44,62.4628,206,1.9
2047,YOHIN,NT,-123.742,61.2419,204,2.5
2064,BAKER LAKE A,NU,-96.0778,64.2989,19,3.2
2072,CHESTERFIELD,NU,-90.7167,63.3333,6,3.2
2077,CLINTON POINT,NU,-120.8,69.5833,101,1.6
2078,CONTWOYTO LAKE,NU,-110.367,65.4833,451,4
2079,COPPERMINE,NU,-115.117,67.8333,9,2.6
2080,KUGLUKTUK A,NU,-115.144,67.8167,23,2.9
2086,CORAL HARBOUR A,NU,-83.3594,64.1933,62,2.7
2091,ENNADAI LAKE,NU,-100.9,61.1333,325,2.8
2110,PELLY BAY,NU,-89.7167,68.4333,326,3.3
2117,RANKIN INLET A,NU,-92.1167,62.8167,32,2.4
2141,ALERT,NU,-62.2806,82.5178,30,2.3
2155,FOX FIVE,NU,-63.7889,67.5356,584,6.3
2162,BYRON BAY A,NU,-109.067,68.75,92,1.2
2163,CAMBRIDGE BAY A,NU,-105.138,69.1081,31,1.6
2173,CAPE DYER A,NU,-61.6167,66.5833,393,8.4
2175,CAPE HOOPER,NU,-66.8153,68.4725,390,5.2
2179,CLYDE A,NU,-68.5167,70.4861,26,4.8
2186,DEWAR LAKES,NU,-71.1667,68.65,527,3.9
2193,EUREKA A,NU,-85.9333,79.9833,10,0.9
2200,GLADMAN POINT A,NU,-97.8,68.6667,14,1.2
2204,HALL BEACH A,NU,-81.2425,68.7758,9,2.2
2216,IQALUIT A,NU,-68.55,63.75,34,2.3
2221,ISACHSEN,NU,-103.533,78.7833,25,1.6
2230,LONGSTAFF BLUFF,NU,-75.1408,68.8986,161,3.4
2231,MACKAR INLET,NU,-85.6667,68.3,395,2.8
2263,RESOLUTE CARS,NU,-94.9694,74.7169,68,1.4
2295,MOULD BAY A,NT,-119.333,76.2333,12,1.2
2299,SACHS HARBOUR A,NT,-125.267,72,86,1.1
2332,BRIGHTVIEW,AB,-113.717,52.9833,815,1.8
2363,CORONATION A,AB,-111.45,52.0667,791,1.8
2385,EDMONTON CITY CENTRE A,AB,-113.518,53.5733,671,1.7
2387,EDMONTON NAMAO A,AB,-113.467,53.6667,688,1.7
2394,EDMONTON STONY PLAIN,AB,-114.108,53.5475,766,1.4
2468,LLOYDMINSTER A,AB,-110.072,53.3092,668,1.2
2501,PARADISE VALLEY,AB,-110.35,53.1167,658,1.2
2518,ROCKY MTN HOUSE,AB,-114.917,52.3833,1015,2.5
2567,UNCAS,AB,-113.033,53.5,750,2
2570,VEGREVILLE CDA,AB,-112.033,53.4833,636,1.4
2572,VERMILION A,AB,-110.833,53.35,619,2.1
2719,LACOMBE CDA,AB,-113.75,52.4667,847,2
2731,MARKERVILLE,AB,-114.133,52.1167,914,2.1
2757,RED DEER A,AB,-113.893,52.1786,905,1.9
2883,COCHRANE,AB,-114.434,51.1969,1332,1.6
2938,LETHBRIDGE A,AB,-112.8,49.6303,929,0.9
2943,LETHBRIDGE CDA,AB,-112.767,49.695,910,1
2955,MEDICINE HAT A,AB,-110.721,50.0189,717,1.1
3017,SUFFIELD A,AB,-111.183,50.2667,770,1.2
3049,OKOTOKS,AB,-113.961,50.7292,1081,1.1
3096,BANFF,AB,-115.567,51.1833,1384,3.2
3153,JASPER,AB,-118.067,52.8833,1062,2.8
3159,KANANASKIS,AB,-115.035,51.0275,1391,2.3
3317,EDSON A,AB,-116.467,53.5833,927,3
3336,FORT MCMURRAY A,AB,-111.217,56.65,369,1.8
3427,RONAN,AB,-115.25,53.8833,732,2.6
3441,SHINING BANK,AB,-115.967,53.85,829,2.3
3450,SLAVE LAKE A,AB,-114.783,55.3,581,2.8
3474,WHITECOURT,AB,-115.667,54.1333,741,3
3476,WHITECOURT A,AB,-115.787,54.1439,782,2.8
3508,BEAVERLODGE CDA,AB,-119.4,55.2,745,2.9
3554,FAIRVIEW,AB,-118.383,56.0667,670,2.6
3569,FORT VERMILION CDA,AB,-116.033,58.3833,279,2.3
3584,GRANDE PRAIRIE A,AB,-118.885,55.1797,669,2.7
3595,HIGH LEVEL A,AB,-117.165,58.6214,338,2.6
3651,PEACE RIVER A,AB,-117.447,56.2269,571,1.9
3742,COLD LAKE A,AB,-110.283,54.4167,541,1.7
3766,BROADVIEW,SK,-102.571,50.3681,600,1.2
3808,ESTEVAN A,SK,-102.967,49.2167,580,1.5
3814,FENWOOD,SK,-103.067,51.15,625,1.6
3863,LEROY,SK,-104.633,52,535,2.1
3884,MOOSE JAW A,SK,-105.567,50.3333,577,1
3928,REGINA CDA,SK,-104.567,50.4,573,1.2
3977,WEYBURN,SK,-103.833,49.65,570,2
3979,WHITEWOOD,SK,-102.267,50.35,598,2.7
3985,WYNYARD,SK,-104.2,51.7667,561,0.8
3992,YORKTON A,SK,-102.467,51.2667,498,2.5
4012,BEECHY,SK,-107.311,50.832,660,1.7
4086,ROCK POINT,SK,-107.263,51.1539,725,0.7
4101,SWIFT CURRENT (HYBRID),SK,-107.708,50.28335,821,1.1
4162,BICKLEIGH,SK,-108.407,51.2944,676,1
4163,BIGGAR,SK,-107.983,52.0667,671,1.3
4164,BUTTE ST PIERRE,SK,-109.2,53.45,572,1.2
4184,KINDERSLEY A,SK,-109.183,51.5167,694,1.1
4187,KINDERSLEY KY,SK,-109.167,51.4667,683,1.8
4200,NORTH BATTLEFORD A,SK,-108.256,52.7719,548,2
4240,CAMEO,SK,-106.55,53.2833,488,1.5
4285,PRINCE ALBERT A,SK,-105.667,53.2167,428,1.4
4305,SASKATOON SRC,SK,-106.6,52.15,497,0.9
4332,BUFFALO NARROWS A,SK,-108.433,55.8333,434,1.7
4337,CIGAR LAKE,SK,-104.483,58.0833,467,2.8
4346,CREE LAKE,SK,-107.133,57.35,495,1.7
4363,KEY LAKE,SK,-105.617,57.25,509,2.4
4369,LA RONGE A,SK,-105.267,55.15,379,2.2
4378,MEADOW LAKE A,SK,-108.517,54.1333,481,1.2
4396,STONY RAPIDS A,SK,-105.833,59.25,245,3
4397,URANIUM CITY A,SK,-108.483,59.5667,318,2.6
4418,NIPAWIN A,SK,-104,53.3333,372,1.7
4443,HUDSON BAY,SK,-102.4,52.8667,372,2.9
4457,PELLY 2,SK,-101.9,51.7333,499,1.8
4475,BRANDON A,MB,-99.9519,49.91,409,2.2
4531,PORTAGE SOUTHPORT A,MB,-98.2667,49.9,270,2.1
4587,ROBLIN FRIESEN 3 NORTHWEST,MB,-101.4,51.2667,556,1.7
4588,RIVERS PETTAPIECE,MB,-100.179,50.1082,488,3.4
4644,MARQUETTE,MB,-97.8071,50.0134,244,2.3
4648,MIAMI THIESSEN,MB,-98.25,49.45,297,1.6
4651,MORDEN CDA,MB,-98.0833,49.1833,298,2.2
4664,OAKBANK,MB,-96.85,49.9333,246,2.4
4674,PILOT MOUND (AUT),MB,-98.9049,49.191,470,2.1
4787,GIMLI,MB,-97.0167,50.6333,223,1.5
4802,HODGSON 2,MB,-97.4651,51.1861,232,4.5
4843,DAUPHIN A,MB,-100.05,51.1,304,1.5
4859,GILBERT PLAINS,MB,-100.467,51.1,404,2.2
4939,FLIN FLON A,MB,-101.683,54.6833,304,1.9
4947,THE PAS A,MB,-101.1,53.9667,270,2.6
4957,CHURCHILL A,MB,-94.0664,58.7392,29,2.6
4970,GILLAM A,MB,-94.7106,56.3575,145,3
4976,ISLAND LAKE A,MB,-94.65,53.85,236,2.6
4988,LYNN LAKE A,MB,-101.076,56.8639,357,2.6
5018,THOMPSON A,MB,-97.8625,55.8033,224,2.4
5029,NORWAY HOUSE A,MB,-97.85,53.95,224,2.6
5034,BIG TROUT LAKE,ON,-89.8667,53.8333,224,4.2
5044,LANSDOWNE HOUSE,ON,-87.8833,52.2333,254,4.1
5053,PICKLE LAKE A,ON,-90.2142,51.4464,386,1.8
5060,RED LAKE A,ON,-93.7931,51.0669,386,3.3
5069,ATIKOKAN,ON,-91.6167,48.75,395,2.9
5099,DRYDEN A,ON,-92.75,49.8333,413,1.9
5110,KENORA A,ON,-94.3653,49.7903,410,3.9
5123,SIOUX LOOKOUT A,ON,-91.9,50.1167,383,3.4
5138,ARMSTRONG (AUT),ON,-88.9053,50.2936,322,4.8
5157,GERALDTON A,ON,-86.9306,49.7828,348,2.9
5224,THUNDER BAY A,ON,-89.3272,48.3694,199,3.5
5239,WHITEFISH LAKE,ON,-89.9167,48.2833,399,3.8
5283,SAULT STE MARIE A,ON,-84.5094,46.4833,192,4.3
5295,WHITE RIVER,ON,-85.2833,48.6,379,3.1
5296,WAWA A,ON,-84.7833,47.9667,287,5.2
5304,CHAPLEAU A,ON,-83.3467,47.82,448,3.1
5329,SUDBURY A,ON,-80.7978,46.6256,348,3.7
5346,EARLTON A,ON,-79.85,47.7,243,5.2
5358,KAPUSKASING CDA,ON,-82.4333,49.4,218,3
5359,KAPUSKASING A,ON,-82.4675,49.4139,226,3.8
5375,MOOSONEE UA,ON,-80.65,51.2667,10,3.5
5393,TIMMINS VICTOR POWER A,ON,-81.3767,48.5697,295,4.3
5408,DWIGHT,ON,-78.9,45.3833,404,4.1
5418,NORTH BAY A,ON,-79.4228,46.3636,370,3.8
5431,GORE BAY A,ON,-82.5667,45.8833,194,3.7
5515,HARTINGTON IHD,ON,-76.6903,44.4281,160,2.4
5524,KINGSTON A,ON,-76.5967,44.2186,92,2.1
5570,OTTAWA CDA,ON,-75.7167,45.3833,79,2
5595,PETAWAWA A,ON,-77.3167,45.95,130,3.2
5646,ALLISTON NELSON,ON,-79.8722,44.1514,221,1.8
5690,COOKSTOWN,ON,-79.6947,44.2067,244,1.6
5694,DUNCHURCH,ON,-79.8833,45.6167,268,3.4
5735,MUSKOKA A,ON,-79.3,44.9667,282,3.9
5759,POWASSAN,ON,-79.25,46.1167,274,3.1
5761,PRICEVILLE,ON,-80.6378,44.2036,472,2.9
5773,SHANTY BAY,ON,-79.6328,44.3995,250,3.4
5808,WIARTON A,ON,-81.1072,44.7458,222,3.8
5880,SARNIA AIRPORT,ON,-82.3047,42.9922,181,1.5
5921,DELHI CDA,ON,-80.55,42.8667,232,1.6
5996,ST CATHARINES A,ON,-79.1667,43.2,98,0.9
6006,SIMCOE,ON,-80.2667,42.85,240,1.7
6032,WATERFORD,ON,-80.2333,42.8833,222,1.2
6037,WINDSOR RIVERSIDE,ON,-82.9333,42.3333,188,1.2
6038,WINDSOR A,ON,-82.9556,42.2756,190,0.9
6077,DORCHESTER,ON,-81.0328,43.002,271,1.5
6137,MOUNT FOREST,ON,-80.75,43.9833,414,2.1
6169,WATERLOO WELLINGTON A,ON,-80.3833,43.45,317,1.8
6192,BELLEVILLE,ON,-77.3947,44.1506,76,1.8
6273,HAMILTON A,ON,-79.9342,43.1717,238,1.9
6278,HAMILTON RBG,ON,-79.8833,43.2833,102,1.4
6407,RICHMOND HILL,ON,-79.4478,43.8772,240,1.9
6413,SANDHILL,ON,-79.8081,43.8081,270,1.5
6417,SMITHFIELD CDA,ON,-77.6667,44.0833,119,1.2
6436,TORONTO,ON,-79.4,43.6667,112,1.3
6479,TORONTO ISLAND A,ON,-79.395,43.6286,76,1
6520,TRENTON A,ON,-77.5333,44.1167,86,1.4
6551,TORONTO BUTTONVILLE A,ON,-79.37,43.8622,198,1.5
6558,TORONTO NORTH YORK,ON,-79.4678,43.78,187,1.6
6577,HALIBURTON 3,ON,-78.5311,45.0322,330,2.7
6596,PETERBOROUGH A,ON,-78.3667,44.2333,191,2.4
6634,DESCHAMBAULT,QC,-71.9167,46.6667,15,4.3
6667,QUEBEC/JEAN LESAGE INTL A,QC,-71.3833,46.8,74,5.6
6669,RIGAUD,QC,-74.3667,45.5,46,2.5
6674,ST ALBAN,QC,-72.0833,46.7167,76,4.9
6675,ST ALEXIS DES MONTS,QC,-73.15,46.5333,183,3.6
6676,STE ANNE DE LA PERADE,QC,-72.2333,46.5833,16,3.5
6677,ST AUGUSTIN,QC,-71.5,46.7333,58,6.5
6678,STE BEATRIX,QC,-73.6,46.2,198,4.3
6681,ST CHARLES DE MANDEVILLE,QC,-73.35,46.35,168,4.1
6685,ST COME,QC,-73.75,46.2833,244,4.2
6699,ST NARCISSE,QC,-72.4333,46.5333,46,4.4
6703,STE THERESE OUEST,QC,-73.8833,45.65,61,2.3
6726,TROIS RIVIERES AQUEDUC,QC,-72.6167,46.3833,55,3.3
6729,LAC AUX SABLES,QC,-72.4,46.8667,160,4.6
6744,BEAUSEJOUR,QC,-71.1667,46.6667,107,4.5
6750,BONSECOURS,QC,-72.2667,45.4,297,3.7
6753,BROME,QC,-72.5667,45.1833,206,2.8
6755,BROMPTONVILLE,QC,-71.95,45.4833,130,2.2
6765,COATICOOK,QC,-71.8,45.15,259,2.8
6774,DRUMMONDVILLE,QC,-72.4833,45.8833,82,2.7
6786,FLEURY,QC,-73,45.8,30,2.6
6787,FORTIERVILLE,QC,-72.05,46.4833,53,4.1
6794,GEORGEVILLE,QC,-72.2333,45.1333,267,3.4
6795,GRANBY,QC,-72.7167,45.3833,175,2.4
6800,HEMMINGFORD FOUR WINDS,QC,-73.7167,45.0667,61,3.5
6802,HUNTINGDON,QC,-74.1667,45.05,49,1.9
6804,IBERVILLE,QC,-73.25,45.3333,30,2
6823,LAUZON,QC,-71.1,46.8167,69,7.1
6826,LENNOXVILLE,QC,-71.8236,45.3689,181,2.8
6827,LINGWICK,QC,-71.3667,45.6333,267,3.7
6829,MAGOG,QC,-72.1167,45.2667,274,2.3
6839,MILAN,QC,-71.1167,45.5833,482,4.2
6845,MONTREAL/PIERRE ELLIOTT TRUDEAU INTL A,QC,-73.75,45.4667,36,2.5
6852,MONTREAL MCGILL,QC,-73.5833,45.5,57,3.8
6856,NICOLET,QC,-72.6167,46.2,30,3.3
6859,NOTRE DAME DES BOIS,QC,-71.0833,45.4,503,3.4
6860,ORMSTOWN,QC,-74.05,45.1167,46,1.6
6863,PIERREVILLE,QC,-72.8333,46.0833,15,2.2
6875,SABREVOIS,QC,-73.2,45.2167,38,2.5
6880,ST ANICET,QC,-74.35,45.1333,53,3.9
6884,ST BERNARD DE LACOLLE,QC,-73.3833,45.0833,49,2.3
6889,STE CLOTHILDE CDA,QC,-73.6833,45.1667,56,1.7
6892,ST COME DE LINIERE,QC,-70.5167,46.05,244,3.1
6899,ST FERDINAND,QC,-71.5833,46.1,297,3.3
6905,STE GENEVIEVE,QC,-73.85,45.5,23,2.5
6906,ST GEORGES,QC,-70.7,46.15,168,2.5
6911,MONTREAL/ST-HUBERT A,QC,-73.4167,45.5167,27,3
6915,ST HYACINTHE 2,QC,-72.9167,45.5667,33,2.8
6925,ST LUDGER,QC,-70.6833,45.75,335,3
6926,STE MADELEINE,QC,-73.1333,45.6167,30,2.3
6927,ST MALO D AUCKLAND,QC,-71.5,45.2,564,3.9
6935,ST PROSPER,QC,-70.5,46.2167,282,3.4
6940,ST SEBASTIEN,QC,-70.95,45.7667,442,4
6942,ST SEVERIN,QC,-71.05,46.3333,442,5.5
6957,SHERBROOKE A,QC,-71.6833,45.4333,241,3.5
6960,SOREL,QC,-73.1167,46.0333,15,2.8
6966,SUTTON,QC,-72.6833,45.0667,244,2.8
6970,THETFORD MINES,QC,-71.35,46.1,381,5.8
6975,VALLEYFIELD,QC,-74.1,45.2833,46,2.3
6978,VERCHERES,QC,-73.3667,45.7667,21,3
6997,ANGERS,QC,-75.55,45.55,91,3.1
7007,CHARTERIS,QC,-76.4333,45.6833,168,2.8
7023,LACHUTE,QC,-74.3333,45.65,91,2.5
7028,LA MACAZA,QC,-74.7667,46.3667,244,3.4
7033,LUSKVILLE,QC,-76.05,45.5333,69,1.4
7035,MANIWAKI UA,QC,-76.0061,46.3018,189,3.7
7041,MONTEBELLO (SEDBERGH),QC,-74.9333,45.7,197,3.1
7053,STE AGATHE DES MONTS,QC,-74.2833,46.05,395,4.7
7056,STE ANNE DU LAC,QC,-75.3333,46.85,262,4
7059,ST HIPPOLYTE,QC,-74,45.9833,366,4.6
7064,SHEENBORO,QC,-77.25,45.9667,137,2.2
7071,WRIGHT,QC,-76.05,46.0667,142,3.2
7075,BAIE-COMEAU A,QC,-68.2,49.1333,22,6.8
7085,LOURDES DE BLANC SABLON A,QC,-57.1833,51.45,37,5.2
7097,CHATEAU RICHER,QC,-71.0333,46.9667,15,5.8
7108,FORET MONTMORENCY,QC,-71.15,47.3167,640,5.4
7114,GRANDES BERGERONNES,QC,-69.5167,48.25,61,3.3
7149,NATASHQUAN A,QC,-61.8167,50.1833,11,8
7173,STE ROSE DU NORD,QC,-70.5333,48.4,205,6.4
7177,SEPT-ILES A,QC,-66.2667,50.2167,55,8.4
7195,RIVIERE AU TONNERRE,QC,-64.7833,50.2833,15,4.5
7230,CAP DES ROSIERS,QC,-64.2,48.85,15,6.9
7232,CAPLAN,QC,-65.6833,48.1,23,3.2
7248,GASPE A,QC,-64.4781,48.7769,34,5.9
7252,GRINDSTONE ISLAND,QC,-61.8667,47.3833,60,5.7
7261,LAC HUMQUI,QC,-67.5667,48.2833,236,5.8
7264,LA POCATIERE CDA,QC,-70.0333,47.35,30,5.1
7273,MONT-JOLI A,QC,-68.2167,48.6,52,7.4
7286,NOUVELLE,QC,-66.3,48.1,7,4.8
7301,RIMOUSKI,QC,-68.5167,48.45,36,4.6
7313,ST CAMILLE,QC,-70.2167,46.4833,396,4.7
7315,ST CLEMENT,QC,-69.1,47.9167,259,5.7
7322,STE GERMAINE,QC,-70.4667,46.4167,510,5.5
7325,ST JEAN DE CHERBOURG,QC,-67.1167,48.8833,350,9.1
7326,STE LUCIE,QC,-70.0167,46.7333,373,5.8
7337,STE ROSE DU DEGELIS,QC,-68.6333,47.5667,151,5.4
7346,ILES DE LA MADELEINE A,QC,-61.7833,47.4167,11,1.2
7357,BAGOTVILLE A,QC,-71,48.3333,159,4.5
7385,LAC BOUCHETTE,QC,-72.1667,48.2167,358,3.3
7390,LAC STE CROIX,QC,-71.75,48.4167,152,4.7
7401,NORMANDIN CDA,QC,-72.5333,48.85,137,3.2
7410,ROBERVAL A,QC,-72.2667,48.5167,179,5.6
7414,ST AMBROISE,QC,-71.3333,48.5667,122,3.8
7419,ST PRIME,QC,-72.4167,48.6167,122,3.4
7462,BARRAGE TEMISCAMINGUE,QC,-79.1011,46.7097,181,2.8
7473,MONT BRUN,QC,-78.7333,48.4167,305,4.2
7496,AMOS,QC,-78.1333,48.5667,310,4.2
7530,LA GRANDE RIVIERE A,QC,-77.7,53.6333,195,2.7
7550,NITCHEQUON,QC,-70.9,53.2,536,4.2
7583,LAC BERRY,QC,-78.2833,48.8,305,2.9
7596,INUKJUAK UA,QC,-78.0833,58.4667,24,3
7601,KUUJJUARAPIK A,QC,-77.75,55.2833,12,3.3
7627,KUUJJUAQ A,QC,-68.4167,58.1,40,3.7
7638,SCHEFFERVILLE A,QC,-66.8167,54.8,522,4.9
7645,ACADIA FOREST EXP ST,NB,-66.3633,45.9903,54,4
7648,AROOSTOOK,NB,-67.7156,46.7122,80,5
7653,BAS CARAQUET,NB,-64.8667,47.8,11,6.2
7663,BERTRAND,NB,-65.0667,47.75,23,6
7681,CHARLO A,NB,-66.3333,47.9833,40,6.3
7686,MIRAMICHI A,NB,-65.4678,47.0095,33,4.8
7698,DOAKTOWN,NB,-66.1403,46.5525,57,10.3
7707,FREDERICTON A,NB,-66.5279,45.8721,21,3.8
7715,GAGETOWN 2,NB,-66.15,45.7833,34,4.7
7731,HAUT SHIPPAGAN,NB,-64.7667,47.75,6,5.9
7749,LITTLE RIVER MINE,NB,-66.0667,47.2833,341,8.8
7766,MONCTON A,NB,-64.6838,46.1053,71,4.4
7781,PENNFIELD,NB,-66.7333,45.1,23,5.7
7805,SACKVILLE,NB,-64.3833,45.85,46,3.1
7814,SAINT JOHN A,NB,-65.8856,45.3181,109,3.3
7821,ST LEONARD A,NB,-67.8319,47.1578,242,6.7
7853,WOODSTOCK,NB,-67.5536,46.1703,153,5
7880,BADDECK,NS,-60.75,46.1,8,4.2
7900,BRIDGEWATER,NS,-64.55,44.4,27,2.7
7917,CHETICAMP,NS,-60.95,46.65,11,3.8
7926,COLLEGEVILLE,NS,-62.0167,45.4833,76,3.3
7934,DEMING,NS,-61.1778,45.2164,16,2.1
7942,ECUM SECUM,NS,-62.1833,44.9833,15,2.1
7953,GREENWOOD A,NS,-64.9167,44.9833,28,3.1
7972,INGONISH BEACH,NS,-60.4,46.65,8,7.4
7982,KENTVILLE CDA,NS,-64.4833,45.0667,49,3.8
8032,NAPPAN CDA,NS,-64.25,45.7667,20,3.3
8052,PARRSBORO,NS,-64.3333,45.4,24,3.3
8080,SABLE ISLAND,NS,-60.0094,43.9322,5,0.9
8088,SALMON HOLE,NS,-64.0333,44.9333,84,5.3
8095,SHEARWATER A,NS,-63.5,44.6333,44,2.2
8122,SYDNEY A,NS,-60.0481,46.1667,62,3.5
8130,TRAFALGAR,NS,-62.6667,45.2833,152,4.6
8133,TRURO,NS,-63.2667,45.3667,40,2.3
8136,TUSKET,NS,-65.9833,43.8833,9,2.9
8138,UPPER STEWIACKE,NS,-63,45.2167,23,2.1
8140,WATERVILLE CAMBRIDGE,NS,-64.65,45.05,31,3.5
8164,YARMOUTH A,NS,-66.0886,43.8308,43,2.2
8170,ALLISTON,PE,-62.6,46.0667,61,7
8177,CHARLOTTETOWN A,PE,-63.1286,46.2886,49,4.5
8179,CHARLOTTETOWN CDA,PE,-63.1333,46.25,23,3.1
8183,EAST BALTIC,PE,-62.1667,46.4333,61,4.9
8193,MONTICELLO,PE,-62.4667,46.4667,32,4
8198,LONG RIVER,PE,-63.55,46.5,18,4.9
8212,SUMMERSIDE A,PE,-63.8317,46.4389,20,3.9
8236,BOAT HARBOUR,NL,-54.8428,47.4306,15,5
8237,BONAVISTA,NL,-53.1142,48.6672,26,5
8242,BUCHANS,NL,-56.8667,48.8167,270,7.8
8247,BURGEO,NL,-57.6167,47.6167,11,3.2
8252,CAPE BROYLE,NL,-52.9333,47.1,6,5.8
8267,COLINET,NL,-53.55,47.2167,27,3.2
8271,COMFORT COVE,NL,-54.8833,49.2667,99,6
8274,CORMACK,NL,-57.4,49.3167,154,4.9
8277,CORNER BROOK,NL,-57.95,48.95,5,5.4
8279,COW HEAD,NL,-57.7889,49.9117,15,6.2
8280,DANIELS HARBOUR,NL,-57.5811,50.2364,19,5.6
8283,DEER LAKE A,NL,-57.4,49.2167,22,7.3
8302,GALLANTS,NL,-58.2333,48.7,143,11.7
8345,LETHBRIDGE,NL,-53.9017,48.35,15,4.7
8353,MIDDLE ARM,NL,-56.0833,49.6833,48,14.5
8361,PETTY HARBOUR,NL,-52.7167,47.4667,6,5.9
8366,PLUM POINT,NL,-56.8833,51.0667,6,5
8371,PORT AUX BASQUES,NL,-59.1547,47.5739,40,7.2
8386,RATTLING BRK NORRIS ARM,NL,-55.3,49.0667,9,4.1
8397,ST ANTHONY,NL,-55.6,51.3667,12,11.5
8403,ST LAWRENCE,NL,-55.3833,46.9167,48,4.5
8416,SOPS ARM WHITE BAY,NL,-56.8833,49.7667,17,5
8419,SPRINGDALE,NL,-56.0833,49.5,23,4.7
8423,STEPHENVILLE A,NL,-58.55,48.5333,25,7
8455,WOODY POINT,NL,-57.9167,49.5,23,10.1
8472,BATTLE HARBOUR LOR,NL,-55.6,52.25,9,10.5
8479,CARTWRIGHT,NL,-57.035,53.7083,14,11.4
8484,CHURCHILL FALLS A,NL,-64.1,53.55,440,8.1
8486,GOOSE A,NL,-60.4167,53.3167,49,6.7
8489,HOPEDALE (AUT),NL,-60.2167,55.45,12,9.3
8498,NAIN A,NL,-61.6833,56.55,6,9.5
8518,WABUSH LAKE A,NL,-66.8742,52.9272,551,7
8767,VICTORIA INT'L A,BC,-123.426,48.6472,20,1.4
8769,VANCOUVER INT'L A,BC,-123.182,49.195,4,1.2
8774,EDMONTON INT'L A,AB,-113.583,53.3167,723,1.7
8775,CALGARY INT'L A,AB,-114.02,51.1139,1084,0.9
8784,REGINA INT'L A,SK,-104.667,50.4333,578,1.5
8785,SASKATOON DIEFENBAKER INT'L A,SK,-106.717,52.1667,504,1.4
8786,WINNIPEG RICHARDSON INT'L A,MB,-97.2333,49.9167,239,2.6
8789,OTTAWA MACDONALD-CARTIER INT'L A,ON,-75.6692,45.3225,114,3.5
8792,LONDON INT'L AIRPORT,ON,-81.1511,43.0331,278,1.8
8795,TORONTO LESTER B. PEARSON INT'L A,ON,-79.6306,43.6772,173,1.4
8799,L'ASSOMPTION,QC,-73.4347,45.8094,21,2.9
8807,MONTREAL/MIRABEL INT'L A,QC,-74.0333,45.6667,83,3.4
8816,VAL-D'OR A,QC,-77.7867,48.0564,337,4.2
8821,HALIFAX STANFIELD INT'L A,NS,-63.5,44.88,145,2.5
8826,O'LEARY,PE,-64.2617,46.7003,38,6
8832,GANDER INT'L A,NL,-54.5769,48.9464,151,5.9
8842,ST JOHN'S A,NL,-52.7428,47.6222,140,5.5
8844,ST JOHN'S WEST CDA,NL,-52.7833,47.5167,114,4.9
12341,FREDERICTON CDA,NB,-66.6167,45.9167,40,3.1
123,HAGERSVILLE 2 composite,ON,-80.42906,42.77439,214,1.5
192,BURKS FALLS composite,ON,-79.41611818,45.33400909,298,3.8
200,STELLARTON LOURDES composite,NS,-62.62608182,45.63357273,54,3
220,COPPER LAKE composite,NS,-61.571925,45.592375,47,4.5
223,SOUTH MOUNTAIN composite,ON,-75.7747875,44.7023375,98,2.1
224,OTTAWA ROCKCLIFFE A composite,ON,-75.56446667,45.36306667,107,3.7
269,METEGHAN RIVER composite,NS,-66.56365,44.46076667,33,1.5
275,WALKERTON composite,ON,-81.2871,44.43423333,216,3.5
278,MAGAGUADAVIC LAKE composite,NB,-67.2232875,45.4179375,91,5.6
282,ST HYACINTHE composite,QC,-72.58703684,45.45045263,146,5.1
286,DEBERT A composite,NS,-63.32314737,45.42973684,56,3
321,HALIBURTON A composite,ON,-78.52882667,44.29722,263,3.1
345,STIRLING composite,ON,-77.62724286,44.39395238,178,3.3
360,LAVALTRIE CDA composite,QC,-73.64116429,45.44933929,45,4.8
437,TORONTO NEW INT'L A composite,ON,-79.48505417,43.59246944,172,1.9
446,GUELPH OAC composite,ON,-80.42801786,43.56001071,348,2.4
456,BATHURST composite,NB,-65.70261429,47.56835714,60,6.7
484,ARGENTIA A composite,NF,-54.1762,47.43571429,32,1.5
487,CAPE RACE (AUT) composite,NF,-53.39608333,46.74611667,41,1.7
488,HARBOUR GRACE composite,NF,-53.59278125,47.4163,34,4
534,ST ANDREWS composite,NF,-59.24258,47.73378,24,6.1
537,MARGAREE FORKS composite,NS,-61.30098,46.322,30,5
555,MONTAGUE composite,PE,-62.51987778,46.2758,34,3.1
586,CAMPBELLTON composite,NB,-66.612725,47.989175,23,7.5
619,SUMMERSIDE CDA composite,PE,-63.55731667,46.3752,29,4.9
621,RIVIERE A PIERRE composite,QC,-72.55415833,46.47778333,82,4.9
639,PORT MENIER composite,QC,-64.36443333,49.8351,32,9.8
641,CAPE LAZO composite,BC,-124.6196087,49.52080435,54,1.2
643,CACHE LAKE composite,QC,-74.5576,49.802625,392,4.8
677,PITT MEADOWS A composite,BC,-122.6529608,49.18924706,68,1.5
729,SPRUCE TCPL 43 composite,MB,-96.63602632,49.46824211,278,2.2
786,MATAGAMI A composite,QC,-77.8049,49.76225,281,4.1
795,GLENWOOD composite,NF,-54.5312,48.85947143,82,4.8
796,TWILLINGATE composite,NF,-54.5889,49.51111667,27,6.1
889,BROADVIEW A composite,SK,-102.5009,50.46864,582,1.8
900,GIMLI A composite,MB,-97.38028,50.50114,250,2
973,GYPSUMVILLE composite,MB,-98.57141429,51.4881,261,2.1
989,VISCOUNT composite,SK,-105.70825,51.647925,573,2.1
1002,ROCKY MTN HOUSE A composite,AB,-114.45775,52.57634167,964,2
1124,OLIVER TREE NURSERY composite,AB,-113.4792941,53.5862,676,1.8
1734,WAGNER composite,AB,-114.61,55.3677,584,2.8
2075,CAPE HOPES ADVANCE composite,QC,-69.59165,61.06665,52,4.2
2139,FORT SIMPSON composite,NT,-121.2822,61.80286,154,2.7